"code UAI";"n° SIRET";"type d'établissement";nom;sigle;statut;tutelle;"université de rattachement libellé";"université de rattachement ID et URL Onisep";"établissements liés libellés";"établissements liés URL et ID Onisep";"boîte postale";adresse;CP;commune;"commune (COG)";cedex;téléphone;arrondissement;département;académie;région;"région (COG)";"longitude (X)";"latitude (Y)";"journées portes ouvertes";"URL et ID Onisep"
0132470P;30591416000034;"Centre de formation d'apprentis";"Corot Formations";;privé;"Ministère chargé des Entreprises et du commerce";;;;;;"33 boulevard du Capitaine Gèze, Parc Massilia";13333;Marseille;13200;"Cedex 14";"04 91 21 57 00";13;"13 - Bouches-du-Rhône";Aix-Marseille;"Provence-Alpes-Côte d'Azur";93;5.3715381;43.3306326;;www.onisep.fr/http/redirection/etablissement/slug/ENS.10078
0130058T;19130058100011;"Lycée professionnel";"Lycée professionnel et technologique régional L'Estaque";;public;"Ministère chargé de l'Éducation nationale et de Jeunesse";;;;;;"310 rue Rabelais";13016;Marseille;13200;;"04 95 06 90 70";16;"13 - Bouches-du-Rhône";Aix-Marseille;"Provence-Alpes-Côte d'Azur";93;5.32568;43.3628;;www.onisep.fr/http/redirection/etablissement/slug/ENS.11230
0750728J;78454444700021;Université;"Faculté libre d'économie, de droit et de gestion";;"privé sous contrat";"Ministère chargé de l'Enseignement supérieur de la Recherche et de l'Innovation";;;;;;"115-117 rue N D des Champs";75006;Paris;75100;;"01 53 10 24 75";06;"75 - Paris";Paris;Ile-de-France;11;2.3343858000001;48.8409385;;www.onisep.fr/http/redirection/etablissement/slug/ENS.309
;84226804700011;"Ecole de santé";"ESOOP ECOTEV";;"privé sous contrat";"Ministère des Solidarités et de la Santé";;;;;;"8 rue Maryse Bastié";69500;Bron;69029;;"04 72 53 04 78";;"69 - Rhône";Lyon;Auvergne-Rhône-Alpes;84;4.9233986;45.726622;;www.onisep.fr/http/redirection/etablissement/slug/ENS.17437
0542511L;80296416300041;"Ecole de santé";"Stan'Santé - FormaSup";;privé;;;;;;;"5 Allée de Vincennes";54000;Nancy;54395;;"03 83 40 70 02";;"54 - Meurthe-et-Moselle";Nancy-Metz;"Grand Est";44;6.1344968999999;48.6547553;;www.onisep.fr/http/redirection/etablissement/slug/ENS.5039
;47887535400027;"autre établissement d'enseignement";Progres'sco;;privé;;;;;;;"48 rue Brémontier";87000;Limoges;87085;;"05 55 32 53 96";;"87 - Haute-Vienne";Limoges;Nouvelle-Aquitaine;75;1.2283644;45.8265937;;www.onisep.fr/http/redirection/etablissement/slug/ENS.19536
0753488J;19753488600092;"Unité de formation et de recherche";"Filière didactique des langues et du Français langue étrangère";"Inalco DDL";public;"Ministère chargé de l'Enseignement supérieur de la Recherche et de l'Innovation";"Institut national des langues et civilisations orientales";www.onisep.fr/http/redirection/etablissement/slug/ENS.85;;;;"65 rue des Grands Moulins";75013;Paris;75100;;"01 81 70 11 36";13;"75 - Paris";Paris;Ile-de-France;11;2.3757925;48.8274311;;www.onisep.fr/http/redirection/etablissement/slug/ENS.8838
0870063W;19870669900339;"Unité de formation et de recherche";"Institut d'études judiciaires";IEJ;public;"Ministère chargé de l'Enseignement supérieur de la Recherche et de l'Innovation";"Université de Limoges";www.onisep.fr/http/redirection/etablissement/slug/ENS.182;;;"BP 3126";"32 rue Turgot, Campus Turgot";87031;Limoges;87085;Cedex;"05 55 34 97 36";;"87 - Haute-Vienne";Limoges;Nouvelle-Aquitaine;75;1.2565122;45.8314554;;www.onisep.fr/http/redirection/etablissement/slug/ENS.7601
0753488J;19753488600092;"Unité de formation et de recherche";"Département études coréennes";Inalco;public;"Ministère chargé de l'Enseignement supérieur de la Recherche et de l'Innovation";"Institut national des langues et civilisations orientales";www.onisep.fr/http/redirection/etablissement/slug/ENS.85;;;;"65 rue des Grands Moulins";75013;Paris;75100;;"01 81 70 11 25";13;"75 - Paris";Paris;Ile-de-France;11;2.3762271000001;48.8274259;;www.onisep.fr/http/redirection/etablissement/slug/ENS.6736
;;"Unité de formation et de recherche";"Maison des sciences de gestion";;public;"Ministère chargé de l'Enseignement supérieur de la Recherche et de l'Innovation";"Université Paris-Panthéon-Assas";www.onisep.fr/http/redirection/etablissement/slug/ENS.84;;;;"1 rue Guy de la Brosse";75005;Paris;75100;;"01 83 97 68 09";05;"75 - Paris";Paris;Ile-de-France;11;2.3558456000001;48.8453637;;www.onisep.fr/http/redirection/etablissement/slug/ENS.18031
0755448P;20003918800012;"Ecole d'art";"Pôle supérieur d'enseignement artistique Paris Boulogne-Billancourt";PSPBB;public;"Ministère de la Culture et de la communication";;;;;;"21 rue de Madrid";75008;Paris;75100;;"01 44 90 78 61";08;"75 - Paris";Paris;Ile-de-France;11;2.320796;48.878656;;www.onisep.fr/http/redirection/etablissement/slug/ENS.18809
0212213S;80131012900045;"autre établissement d'enseignement";Supexam;;privé;;;;;;;"34 rue des Planchettes";21000;Dijon;21231;;"03 80 63 75 81";;"21 - Côte-d'Or";Dijon;Bourgogne-Franche-Comté;27;5.062376;47.3154816;"le 19/03/2022 de 10h00 à 16h00 voir https://supexam-dijon.fr/inscription-jpo/";www.onisep.fr/http/redirection/etablissement/slug/ENS.17652
9760358K;13001631400010;Université;"Centre universitaire de Mayotte";;public;"Ministère chargé de l'Enseignement supérieur de la Recherche et de l'Innovation";;;;;"BP 53";"Route Nationale 3";97660;Dembéni;97607;;"0269 61 07 62";;"976 - Mayotte";Mayotte;Mayotte;06;45.187285010065;-12.845411993191;;www.onisep.fr/http/redirection/etablissement/slug/ENS.403
1380021Y;;"Ecole d'art";"Ecole supérieure d'arts plastiques de la ville de Monaco Pavillon Bosio";;public;"Ministère de la Culture et de la communication";;;;;;"1 avenue des Pins";98000;Monaco;99138;;"00 377 93 30 18 39";;"06 - Alpes-Maritimes";Nice;"Provence-Alpes-Côte d'Azur";93;7.4264044;43.7318363;;www.onisep.fr/http/redirection/etablissement/slug/ENS.1824
0755999N;75253547600341;"autre école de commerce";"ESG Sport";ESG;"privé reconnu";;;;;;;"33-35 rue Nungesser et Coli";75016;Paris;75100;;"01 83 62 24 70";16;"75 - Paris";Paris;Ile-de-France;11;2.2513616202377;48.842615902459;;www.onisep.fr/http/redirection/etablissement/slug/ENS.18922
0755784E;79229841600019;"Ecole d'art";"L'école du Jeu - école de théâtre Paris";;privé;;;;;;;"36-38 rue de la Goutte d'Or";75018;Paris;75100;;"01 42 51 84 02";18;"75 - Paris";Paris;Ile-de-France;11;2.3516754;48.8851058;;www.onisep.fr/http/redirection/etablissement/slug/ENS.17962
0134017W;13001533200583;"Centre de formation de fonctionnaires";"Centre de formation des psychologues de l'Education nationale";CEFOPsyEN;public;"Ministère chargé de l'Enseignement supérieur de la Recherche et de l'Innovation";"Aix-Marseille Université";www.onisep.fr/http/redirection/etablissement/slug/ENS.643;;;;"29 avenue Robert Schuman";13621;Aix-en-Provence;13001;"Cedex 01";"0413 55 30 00";;"13 - Bouches-du-Rhône";Aix-Marseille;"Provence-Alpes-Côte d'Azur";93;5.4459813;43.5136068;;www.onisep.fr/http/redirection/etablissement/slug/ENS.11271
0840933H;19840685200253;"Unité de formation et de recherche";"UFRip Sciences humaines et sociales";SHS;public;"Ministère chargé de l'Enseignement supérieur de la Recherche et de l'Innovation";"Avignon Université";www.onisep.fr/http/redirection/etablissement/slug/ENS.374;;;"Case 19";"74 rue Louis Pasteur";84029;Avignon;84007;"Cedex 01";"04 90 16 29 58";;"84 - Vaucluse";Aix-Marseille;"Provence-Alpes-Côte d'Azur";93;4.81781;43.9499;;www.onisep.fr/http/redirection/etablissement/slug/ENS.17190
0753488J;19753488600092;"Unité de formation et de recherche";"Filière communication et formation interculturelles";"Inalco CI";public;"Ministère chargé de l'Enseignement supérieur de la Recherche et de l'Innovation";"Institut national des langues et civilisations orientales";www.onisep.fr/http/redirection/etablissement/slug/ENS.85;;;;"65 rue des Grands Moulins";75013;Paris;75100;;"01 81 70 11 36";13;"75 - Paris";Paris;Ile-de-France;11;2.274062;48.871557;;www.onisep.fr/http/redirection/etablissement/slug/ENS.15764
0751991G;19751719600253;"Unité de formation et de recherche";"Département - Institut d'études européennes";;public;"Ministère chargé de l'Enseignement supérieur de la Recherche et de l'Innovation";"Université  Sorbonne Nouvelle";www.onisep.fr/http/redirection/etablissement/slug/ENS.79;;;;"10-12 avenue de Saint-Mandé";75012;Paris;75100;;;12;"75 - Paris";Paris;Ile-de-France;11;2.354249;48.840195;;www.onisep.fr/http/redirection/etablissement/slug/ENS.15603
0131436R;40993526900012;"lycée GT";"Lycée polyvalent modèle électronique";;"privé sous contrat";"Ministère chargé de l'Éducation nationale et de Jeunesse";;;;;;"233 boulevard Saint Marcel";13396;Marseille;13200;"Cedex 11";"04 91 44 65 37";11;"13 - Bouches-du-Rhône";Aix-Marseille;"Provence-Alpes-Côte d'Azur";93;5.46877;43.2864;;www.onisep.fr/http/redirection/etablissement/slug/ENS.5776
;18001404502518;"Centre de formation de fonctionnaires";"Institut national des études territoriales";INET;public;"Ministère de l'Intérieur";;;;;"CS 40262";"1 rue Edmond Michelet";67080;Strasbourg;67482;Cedex;"03 88 15 52 64";;"67 - Bas-Rhin";Strasbourg;"Grand Est";44;7.7666621;48.5733968;;www.onisep.fr/http/redirection/etablissement/slug/ENS.14266
0580032V;19580032100018;"lycée GT";"Lycée Raoul Follereau";;public;"Ministère chargé de l'Éducation nationale et de Jeunesse";;;;;;"9 boulevard Saint-Exupéry";58000;Nevers;58194;;"03 86 60 36 00";;"58 - Nièvre";Dijon;Bourgogne-Franche-Comté;27;3.1589;47.0048;;www.onisep.fr/http/redirection/etablissement/slug/ENS.13965
;40241043500034;"Ecole d'art";"Ecole de maquillage artistique Sophie Lecomte";;privé;;;;;;;"6 place Jeanne d'Arc";13100;Aix-en-Provence;13001;;"04 42 27 53 63";;"13 - Bouches-du-Rhône";Aix-Marseille;"Provence-Alpes-Côte d'Azur";93;5.4446892;43.5271508;;www.onisep.fr/http/redirection/etablissement/slug/ENS.17676
;49942487700052;"autre établissement d'enseignement";Sup'Perform;;privé;;;;;;;"501 avenue Occitanie";34090;Montpellier;34172;;"06 40 28 85 95";;"34 - Hérault";Montpellier;Occitanie;76;3.855408;43.635148;;www.onisep.fr/http/redirection/etablissement/slug/ENS.18891
0134013S;13001533200013;"Unité de formation et de recherche";"Observatoire des sciences de l'Univers - Institut Pythéas";"OSU - PYTHEAS";public;"Ministère chargé de l'Enseignement supérieur de la Recherche et de l'Innovation";"Aix-Marseille Université";www.onisep.fr/http/redirection/etablissement/slug/ENS.643;;;;"38 rue Frédéric Joliot-Curie, technopôle de Château-Gombert";13388;Marseille;13200;"Cedex 09";"04 95 04 41 56";13;"13 - Bouches-du-Rhône";Aix-Marseille;"Provence-Alpes-Côte d'Azur";93;5.43563;43.34;;www.onisep.fr/http/redirection/etablissement/slug/ENS.15211
0800074W;19801344300066;"Unité de formation et de recherche";"UFR de droit et de science politique";;public;"Ministère chargé de l'Enseignement supérieur de la Recherche et de l'Innovation";"Université Picardie Jules Verne Amiens";www.onisep.fr/http/redirection/etablissement/slug/ENS.93;;;"BP 2716";"10 placette Lafleur, Pôle universitaire cathédrale";80027;Amiens;80021;"Cedex 01";"03 22 82 71 52";;"80 - Somme";Amiens;Hauts-de-France;32;2.3014887;49.8964456;;www.onisep.fr/http/redirection/etablissement/slug/ENS.15483
0912143K;19911975100097;"Unité de formation et de recherche";"UFR de sciences fondamentales et appliquées";;public;"Ministère chargé de l'Enseignement supérieur de la Recherche et de l'Innovation";"Université d'Evry-Val-d'Essonne";www.onisep.fr/http/redirection/etablissement/slug/ENS.259;;;;"rue du Père André Jarlan, bâtiment Maupertuis";91025;Evry-Courcouronnes;91228;Cedex;"01 69 47 01 80";;"91 - Essonne";Versailles;Ile-de-France;11;2.42726;48.624;;www.onisep.fr/http/redirection/etablissement/slug/ENS.4595
0132569X;19132569500010;"Lycée professionnel";"Section d'enseignement professionnel Lycée Emile Zola";;public;"Ministère chargé de l'Éducation nationale et de Jeunesse";;;;;"BP 60010";"Avenue Arc de Meyran";13181;Aix-en-Provence;13001;"Cedex 05";"04 42 93 87 00";;"13 - Bouches-du-Rhône";Aix-Marseille;"Provence-Alpes-Côte d'Azur";93;5.45982;43.5108;;www.onisep.fr/http/redirection/etablissement/slug/ENS.4049
0390024P;19390024800017;"Lycée professionnel";"Lycée professionnel Pierre Vernotte";;public;"Ministère chargé de l'Éducation nationale et de Jeunesse";;;;;"BP 8";"6 route de Saint-Laurent";39261;Moirans-en-Montagne;39333;;"03 84 42 02 07";;"39 - Jura";Besançon;Bourgogne-Franche-Comté;27;5.72042;46.4368;;www.onisep.fr/http/redirection/etablissement/slug/ENS.17623
0750787Y;19750787400018;"Lycée professionnel";"LP des arts graphiques et du livre Corvisart-Tolbiac - site Corvisart";;public;"Ministère chargé de l'Éducation nationale et de Jeunesse";;;;;;"61 rue Corvisart";75013;Paris;75100;;"01 44 08 65 00";13;"75 - Paris";Paris;Ile-de-France;11;2.348853;48.8303;;www.onisep.fr/http/redirection/etablissement/slug/ENS.3343
9741176K;;"Lycée professionnel";"Section d'enseignement professionnel du lycée polyvalent Moulin Joli";;public;"Ministère chargé de l'Éducation nationale et de Jeunesse";;;;;;"60 rue Mahatma Ghandi";97419;"La Possession";97408;;"02 62 22 14 14";;"974 - La Réunion";"La Réunion";"La Réunion";04;55.3309395;-20.9455956;;www.onisep.fr/http/redirection/etablissement/slug/ENS.11628
0560085N;19560085300012;"Ecole de formation sportive";"Ecole Nationale de Voile et des Sports Nautiques";ENVSN;public;"Ministère chargé des sports";;;;;;"Beg Rohu";56510;Saint-Pierre-Quiberon;56234;;"02 97 30 30 30";;"56 - Morbihan";Rennes;Bretagne;53;-3.12087;47.5094;;www.onisep.fr/http/redirection/etablissement/slug/ENS.18439
0290156M;77751857200014;"lycée GT";"Lycée Saint-Louis";;"privé sous contrat";"Ministère chargé de l'Éducation nationale et de Jeunesse";;;;;"CS 21065";"63 Grand'rue";29150;Châteaulin;29026;;"02 98 86 59 00";;"29 - Finistère";Rennes;Bretagne;53;-4.08515;48.1973;;www.onisep.fr/http/redirection/etablissement/slug/ENS.8072
0530500F;13002068800102;"Centre de formation d'apprentis";"URMA Mayenne - site 30 boulevard de Volney";;public;"Chambres de métiers et de l'artisanat";;;"URMA Mayenne - site 84 boulevard de Volney à Laval (53) | URMA Mayenne - site de Chanzy à Laval (53)";"www.onisep.fr/http/redirection/etablissement/slug/ENS.13151 | www.onisep.fr/http/redirection/etablissement/slug/ENS.9355";;"30 boulevard Volney";53000;Laval;53130;;"02 43 64 11 00";;"53 - Mayenne";Nantes;"Pays de la Loire";52;-0.7946097;48.056817;;www.onisep.fr/http/redirection/etablissement/slug/ENS.15233
0430827R;26430284500070;"Ecole de santé";"Institut de formation en soins infirmiers - Institut de formation d'aides-soignants";"IFSI - IFAS";public;"Ministère des Solidarités et de la Santé";;;;;"BP 20352";"12 boulevard du Docteur Chantemesse, Centre hospitalier Emile Roux";43012;"Le Puy-en-Velay";43157;Cedex;"04 71 04 33 67";;"43 - Haute-Loire";Clermont-Ferrand;Auvergne-Rhône-Alpes;84;3.87778;45.0497;;www.onisep.fr/http/redirection/etablissement/slug/ENS.5577
0280944Z;31968154000013;"Lycée agricole";"Lycée d'enseignement agricole privé de Nermont";;"privé sous contrat";"Ministère de l'Agriculture et de l'Alimentation";;;;;"BP 64";"2 rue de Nermont, La Chapelle du noyer";28202;Châteaudun;28088;Cedex;"02 37 44 60 60";;"28 - Eure-et-Loir";Orléans-Tours;"Centre-Val de Loire";24;1.33053;48.0645;;www.onisep.fr/http/redirection/etablissement/slug/ENS.9633
0050007F;19050007400017;"lycée GT";"Lycée Aristide Briand";;public;"Ministère chargé de l'Éducation nationale et de Jeunesse";;;;;"BP 155";"20 avenue Commandant Dumont";05007;Gap;05061;Cedex;"04 92 52 28 05";;"05 - Hautes-Alpes";Aix-Marseille;"Provence-Alpes-Côte d'Azur";93;6.08486;44.566;;www.onisep.fr/http/redirection/etablissement/slug/ENS.7062
0694377H;19690250600035;"Centre de formation professionnelle";"Centre de formation et de promotion horticole";CFPH;public;"Ministère de l'Agriculture et de l'Alimentation";;;;;;"13 avenue de Verdun";69130;Ecully;69081;;"04 78 33 46 12";;"69 - Rhône";Lyon;Auvergne-Rhône-Alpes;84;4.787821;45.773828;;www.onisep.fr/http/redirection/etablissement/slug/ENS.4933
0910626L;19910626100019;"lycée GT";"Lycée Blaise Pascal";;public;"Ministère chargé de l'Éducation nationale et de Jeunesse";;;;;"BP 55";"18 rue Alexander Fleming";91401;Orsay;91471;Cedex;"01 64 86 16 00";;"91 - Essonne";Versailles;Ile-de-France;11;2.18754;48.696;;www.onisep.fr/http/redirection/etablissement/slug/ENS.9188
0680073K;19680073400010;"lycée GT";"Lycée Scheurer Kestner";;public;"Ministère chargé de l'Éducation nationale et de Jeunesse";;;;;"BP 110";"1 rue Moschenross";68802;Thann;68334;Cedex;"03 89 38 33 50";;"68 - Haut-Rhin";Strasbourg;"Grand Est";44;7.1137;47.8011;;www.onisep.fr/http/redirection/etablissement/slug/ENS.11578
0341820U;32922456200655;"autre établissement d'enseignement";"ISCOM Institut supérieur de communication et publicité";ISCOM;privé;;;;;;;"140 rue Robert Koch, Robert Koch";34090;Montpellier;34172;;"04 67 10 57 74";;"34 - Hérault";Montpellier;Occitanie;76;3.8295570109024;43.6382851;;www.onisep.fr/http/redirection/etablissement/slug/ENS.10773
9711143R;38518253000035;"autre établissement d'enseignement";FORM'Action;FORM'Action;"privé sous contrat";;;;;;;"41 Lôtissement Dugazon de Bourgogne, Z.A. Petit Pérou";97139;"Les Abymes";97101;;"05 90 93 01 16";;"971 - Guadeloupe";Guadeloupe;Guadeloupe;01;-61.5085621;16.2576515;;www.onisep.fr/http/redirection/etablissement/slug/ENS.18812
0752090P;32856044600010;"Ecole d'art";"Ecole normale de musique Alfred Cortot";;privé;;;;;;;"114 bis Boulevard Malesherbes";75017;Paris;75100;;"01 47 63 85 72";17;"75 - Paris";Paris;Ile-de-France;11;2.309;48.884;;www.onisep.fr/http/redirection/etablissement/slug/ENS.16582
0630106Y;13002277500303;"Unité de formation et de recherche";"UFR d'odontologie";;public;"Ministère chargé de l'Enseignement supérieur de la Recherche et de l'Innovation";"Université Clermont Auvergne";www.onisep.fr/http/redirection/etablissement/slug/ENS.527;;;;"2 rue de Braga";63100;Clermont-Ferrand;63113;;"04 73 17 73 00";;"63 - Puy-de-Dôme";Clermont-Ferrand;Auvergne-Rhône-Alpes;84;3.11172;45.7868;;www.onisep.fr/http/redirection/etablissement/slug/ENS.9754
0771027Y;19771027000012;"lycée GT";"Lycée polyvalent Frédéric Joliot-Curie";;public;"Ministère chargé de l'Éducation nationale et de Jeunesse";;;;;"BP 36";"168 rue Frédéric Joliot-Curie";77196;Dammarie-les-Lys;77152;Cedex;"01 64 39 34 34";;"77 - Seine-et-Marne";Créteil;Ile-de-France;11;2.64865;48.5182;;www.onisep.fr/http/redirection/etablissement/slug/ENS.14374
0941294W;19941294100015;"lycée GT";"Lycée polyvalent Adolphe Chérioux";;public;"Ministère chargé de l'Éducation nationale et de Jeunesse";;;;;"BP 210";"195 rue Julian Grimau";94400;Vitry-sur-Seine;94081;Cedex;"01 45 12 87 87";;"94 - Val-de-Marne";Créteil;Ile-de-France;11;2.37333;48.7805;;www.onisep.fr/http/redirection/etablissement/slug/ENS.14372
0771941S;19771941200011;"lycée GT";"Lycée polyvalent René Cassin";;public;"Ministère chargé de l'Éducation nationale et de Jeunesse";;;;;"BP 14";"1 avenue Pierre Mendès France";77186;Noisiel;77337;Cedex;"01 60 37 56 56";;"77 - Seine-et-Marne";Créteil;Ile-de-France;11;2.617531;48.840941;;www.onisep.fr/http/redirection/etablissement/slug/ENS.1424
0783379Z;41266411200023;"autre établissement d'enseignement";"L'Institut des études comptables";"CEDEFI -LIDEC";"privé reconnu";;;;;;;"12 avenue des Prés, BL 501";78059;Montigny-le-Bretonneux;78423;Cedex;"01 39 44 99 47";;"78 - Yvelines";Versailles;Ile-de-France;11;2.0163;48.7764;;www.onisep.fr/http/redirection/etablissement/slug/ENS.11419
0930126G;19930126800025;"lycée GT";"Lycée Auguste Blanqui";;public;"Ministère chargé de l'Éducation nationale et de Jeunesse";;;;;"BP 196";"54 rue Charles Schmidt";93400;Saint-Ouen;93070;;"01 49 18 16 80";;"93 - Seine-Saint-Denis";Créteil;Ile-de-France;11;2.33327;48.9033;;www.onisep.fr/http/redirection/etablissement/slug/ENS.4177
0932030B;19932030000023;"lycée GT";"Lycée Maurice Utrillo";;public;"Ministère chargé de l'Éducation nationale et de Jeunesse";;;;;;"152 rue Jean Durand";93240;Stains;93072;;"01 49 71 40 00";;"93 - Seine-Saint-Denis";Créteil;Ile-de-France;11;2.37031;48.9534;;www.onisep.fr/http/redirection/etablissement/slug/ENS.1862
0941482A;19941111700088;"Unité de formation et de recherche";"UFR sciences de l'éducation, sciences sociales, sciences et techniques des activités physiques et sportives";STAPS;public;"Ministère chargé de l'Enseignement supérieur de la Recherche et de l'Innovation";"Université Paris-Est Créteil Val-de-Marne";www.onisep.fr/http/redirection/etablissement/slug/ENS.148;;;;"80 avenue du Général de Gaulle, Centre de la Pyramide";94009;Créteil;94028;Cedex;"01 45 17 44 05";;"94 - Val-de-Marne";Créteil;Ile-de-France;11;2.4484;48.7961;;www.onisep.fr/http/redirection/etablissement/slug/ENS.5458
0772716J;13002612300039;"Unité de formation et de recherche";"UFR de lettres, arts, communication et technologies";;public;"Ministère chargé de l'Enseignement supérieur de la Recherche et de l'Innovation";"Université Gustave Eiffel";www.onisep.fr/http/redirection/etablissement/slug/ENS.117;;;;"5 boulevard Descartes, Bâtiment Copernic";77454;Champs-sur-Marne;77083;"Cedex 02";"01 60 95 71 02";;"77 - Seine-et-Marne";Créteil;Ile-de-France;11;2.58783;48.8391;;www.onisep.fr/http/redirection/etablissement/slug/ENS.1661
0690521S;77988331300016;"lycée GT";"Lycée Sainte-Marie";;"privé sous contrat";"Ministère chargé de l'Éducation nationale et de Jeunesse";;;"Lycée Sainte-Marie (annexe du lycée de Lyon) à La Verpillière (38)";www.onisep.fr/http/redirection/etablissement/slug/ENS.6707;;"4 montée Saint-Barthélemy";69321;Lyon;69380;"Cedex 05";"04 78 28 38 34";05;"69 - Rhône";Lyon;Auvergne-Rhône-Alpes;84;4.82667;45.7656;;www.onisep.fr/http/redirection/etablissement/slug/ENS.3755
0371532P;34199430900027;"Lycée professionnel";"Lycée polyvalent privé d'esthétique cosmétique de Touraine";;"privé sous contrat";"Ministère chargé de l'Éducation nationale et de Jeunesse";;;;;;"49 et 51 rue Laponneraye";37000;Tours;37261;;"02 47 20 83 04";;"37 - Indre-et-Loire";Orléans-Tours;"Centre-Val de Loire";24;0.689676;47.3824;"le 26/03/2022 de 09h00 à 14h00";www.onisep.fr/http/redirection/etablissement/slug/ENS.4927
0060862E;18130001300172;"Centre de formation d'apprentis";"Institut de formation pharmacie santé Côte d'Azur";IFPS;"privé sous contrat";"Chambre de commerce et d'industrie";;;;;;"120 boulevard du Point du Jour";06700;Saint-Laurent-du-Var;06123;;"04 89 06 72 00";;"06 - Alpes-Maritimes";Nice;"Provence-Alpes-Côte d'Azur";93;7.19391;43.6696;;www.onisep.fr/http/redirection/etablissement/slug/ENS.10105
0740003B;19740003900016;"lycée GT";"Lycée général Berthollet";;public;"Ministère chargé de l'Éducation nationale et de Jeunesse";;;;;"BP 316";"9 boulevard du lycée";74008;Annecy;74010;Cedex;"04 50 51 38 64";;"74 - Haute-Savoie";Grenoble;Auvergne-Rhône-Alpes;84;6.12742;45.9067;;www.onisep.fr/http/redirection/etablissement/slug/ENS.13878
0595953A;78987753700041;"autre établissement d'enseignement";"RUBIKA Jeu Vidéo";;"privé reconnu";;;;;;;"2 rue Péclet, Serre numérique";59300;Valenciennes;59606;;"03 61 10 12 20";;"59 - Nord";Lille;Hauts-de-France;32;3.5151673;50.3727674;;www.onisep.fr/http/redirection/etablissement/slug/ENS.10623
0301673F;43154926000070;"autre établissement d'enseignement";"Sud Formation Conseil";;privé;;;;;;;"1000 bis avenue Maréchal Juin";30900;Nîmes;30189;;"04 66 29 57 65";;"30 - Gard";Montpellier;Occitanie;76;4.344877;43.820497;;www.onisep.fr/http/redirection/etablissement/slug/ENS.19489
0753895B;64205323500015;"lycée GT";"Cours Molière";;privé;;;;;;;"2-4 boulevard Soult";75012;Paris;75100;;"01 43 43 44 96";12;"75 - Paris";Paris;Ile-de-France;11;2.4076229;48.8360644;;www.onisep.fr/http/redirection/etablissement/slug/ENS.19635
0442410F;19440984300811;"Ecole d'ingénieurs";"Ecole polytechnique universitaire de l'université de Nantes - site de Saint-Nazaire";Polytech;public;"Ministère chargé de l'Enseignement supérieur de la Recherche et de l'Innovation";"Nantes université";www.onisep.fr/http/redirection/etablissement/slug/ENS.106;"Ecole polytechnique universitaire de l'université de Nantes - site de La Roche-sur-Yon à La Roche-sur-Yon (85) | Ecole polytechnique universitaire de l'université de Nantes - site de Nantes à Nantes (44)";"www.onisep.fr/http/redirection/etablissement/slug/ENS.22216 | www.onisep.fr/http/redirection/etablissement/slug/ENS.8757";"CS 70152";"boulevard de l'université, Gavy-Océanis";44603;Saint-Nazaire;44184;Cedex;"02 40 90 50 30";;"44 - Loire-Atlantique";Nantes;"Pays de la Loire";52;-2.25707;47.2531;;www.onisep.fr/http/redirection/etablissement/slug/ENS.8062
0623786D;30761630000017;"Maison familiale rurale";"Maison familiale rurale de Rollancourt";MFR;"privé sous contrat";"Ministère de l'Agriculture et de l'Alimentation";;;;;;"1 rue du Moulin";62770;Rollancourt;62719;;"03 21 04 81 06";;"62 - Pas-de-Calais";Lille;Hauts-de-France;32;2.12475;50.407;"le 19/03/2022 de 08h30 à 12h00 (prise de rendez-vous par téléphone ou par mail) | le 10/04/2022 de 10h00 à 17h00 (prise de rendez-vous par téléphone ou par mail) | le 14/05/2022 de 08h30 à 12h00 (prise de rendez-vous par téléphone ou par mail)";www.onisep.fr/http/redirection/etablissement/slug/ENS.15120
0596872Z;45125756200137;"autre établissement d'enseignement";"Rose Carmin";;privé;;;;;;;"24 bis rue Gantois";59000;Lille;59350;;"03 20 74 90 40";;"59 - Nord";Lille;Hauts-de-France;32;3.0576986;50.6255501;"du 18/12/2021 au 27/08/2022 de 09h00 à 16h00 (portes ouvertes une à deux fois par mois toute l'année de 9h à 16h - entretien individuel et proposition d'une formule adaptée à son niveau d'étude et à ses possibilités financières - inscription sur http://www.groupe-adonis.fr/journees-portes-ouvertes)";www.onisep.fr/http/redirection/etablissement/slug/ENS.18744
0741438L;39759221300011;"Maison familiale rurale";"Maison familiale rurale du Pays de Seyssel";MFR;"privé sous contrat";"Ministère de l'Agriculture et de l'Alimentation";;;;;"BP 6";"6 rue des Oudets";74910;Seyssel;74269;;"04 50 56 13 05";;"74 - Haute-Savoie";Grenoble;Auvergne-Rhône-Alpes;84;5.83998;45.9608;"le 06/04/2022 de 09h00 à 17h00 (sur rendez-vous uniquement) | le 14/05/2022 de 09h00 à 17h00 (sur rendez-vous uniquement) | le 15/06/2022 de 09h00 à 17h00 (sur rendez-vous uniquement)";www.onisep.fr/http/redirection/etablissement/slug/ENS.13821
0142326C;26140093100273;"Ecole de santé";"Institut de formation de manipulateurs d'électroradiologie médicale du CHU";IFMEM;public;"Ministère des Solidarités et de la Santé";;;;;;"2 rue des Rochambelles";14032;Caen;14118;"Cedex 5";"02 31 56 83 28";;"14 - Calvados";Normandie;Normandie;28;-0.362568;49.2086;;www.onisep.fr/http/redirection/etablissement/slug/ENS.2172
0421021G;77639493400025;"Ecole de santé";"Institut de formation en masso-kinésithérapie Saint-Michel";IFMK;"privé sous contrat";"Ministère des Solidarités et de la Santé";;;;;;"29 rue Michelet";42000;Saint-Etienne;42218;;"04 77 45 10 41";;"42 - Loire";Lyon;Auvergne-Rhône-Alpes;84;4.3899666;45.4340712;;www.onisep.fr/http/redirection/etablissement/slug/ENS.3165
0754888F;19750475600010;"Lycée professionnel";"Section d'enseignement professionnel du Lycée Léonard de Vinci";;public;"Ministère chargé de l'Éducation nationale et de Jeunesse";;;;;;"93 rue de l'Ouest";75014;Paris;75100;;"01 53 68 05 25";14;"75 - Paris";Paris;Ile-de-France;11;2.3167823;48.8346653;;www.onisep.fr/http/redirection/etablissement/slug/ENS.17717
0311098A;;"Ecole du secteur social";"Institut Saint-Simon (site de Tarbes)";;"privé sous contrat";"Ministère des Solidarités et de la Santé";;;;;"CS 41624";"IUT de Tarbes - 1 rue Lautréamont";65016;Tarbes;65440;;"05 62 44 42 67";;"65 - Hautes-Pyrénées";Toulouse;Occitanie;76;0.0489137;43.2250185;;www.onisep.fr/http/redirection/etablissement/slug/ENS.17892
0754722A;;"autre établissement d'enseignement";"Ecole supérieure de gestion immobilière - Pôle ESG";;privé;;;;;;;"25 rue Saint-Ambroise";75011;Paris;75100;;"01 55 25 46 27";11;"75 - Paris";Paris;Ile-de-France;11;2.3776589;48.862363;;www.onisep.fr/http/redirection/etablissement/slug/ENS.22082
0142248T;;"autre établissement d'enseignement";SUP4S;;"privé hors contrat";;;;;;;"13 boulevard Maréchal Juin";14000;Caen;14118;;"02 31 30 69 00";;"14 - Calvados";Normandie;Normandie;28;-0.3698915;49.1810037;;www.onisep.fr/http/redirection/etablissement/slug/ENS.21730
0381516S;13002139700042;"Institut universitaire de technologie";"IUT 1 (campus - Saint-Martin-d'Hères)";"IUT 1";public;"Ministère chargé de l'Enseignement supérieur de la Recherche et de l'Innovation";"Université Grenoble Alpes";www.onisep.fr/http/redirection/etablissement/slug/ENS.490;"IUT 1 (site Grenoble - Claude Bernard) à Grenoble (38) | IUT 1 (site Grenoble - Claude Bernard) à Grenoble (38) | IUT 1 (site Grenoble - Gambetta) à Grenoble (38)";"www.onisep.fr/http/redirection/etablissement/slug/ENS.18914 | www.onisep.fr/http/redirection/etablissement/slug/ENS.18914 | www.onisep.fr/http/redirection/etablissement/slug/ENS.18838";"BP 67";"151 rue de la Papeterie, Domaine Universitaire";38400;Saint-Martin-d'Hères;38421;Cedex;"04 76 82 53 00";;"38 - Isère";Grenoble;Auvergne-Rhône-Alpes;84;5.77433;45.1991;;www.onisep.fr/http/redirection/etablissement/slug/ENS.8231
0490769V;19490970100030;"Institut universitaire de technologie";"IUT d'Angers";;public;"Ministère chargé de l'Enseignement supérieur de la Recherche et de l'Innovation";"Université d'Angers";www.onisep.fr/http/redirection/etablissement/slug/ENS.325;"Antenne de Cholet - IUT d'Angers à Cholet (49)";www.onisep.fr/http/redirection/etablissement/slug/ENS.10670;"BP 42018";"4 boulevard Lavoisier";49016;Angers;49007;"Cedex 01";"02 44 68 87 00";;"49 - Maine-et-Loire";Nantes;"Pays de la Loire";52;-0.602092;47.4816;;www.onisep.fr/http/redirection/etablissement/slug/ENS.1679
0381516S;13002608100062;"Unité de formation et de recherche";"Ecole nationale de l'enseignement professionnel supérieur";ENEPS;public;"Ministère chargé de l'Enseignement supérieur de la Recherche et de l'Innovation";"Université Grenoble Alpes";www.onisep.fr/http/redirection/etablissement/slug/ENS.490;;;"BP 67";"151 rue de la papeterie, université Grenoble Alpes - IUT 1";38402;Saint-Martin-d'Hères;38421;;"04 76 82 84 15";;"38 - Isère";Grenoble;Auvergne-Rhône-Alpes;84;5.77471;45.199518;;www.onisep.fr/http/redirection/etablissement/slug/ENS.19090
0261460W;19381839000018;"Unité de formation et de recherche";"Institut d'administration des entreprises Grenoble - site de Valence";"IAE VALENCE";public;"Ministère chargé de l'Enseignement supérieur de la Recherche et de l'Innovation";"Université Grenoble Alpes";www.onisep.fr/http/redirection/etablissement/slug/ENS.490;;;"BP 29";"51 rue Barthélemy de Laffemas";26901;Valence;26362;"Cedex 09";"04 75 41 97 70";;"26 - Drôme";Grenoble;Auvergne-Rhône-Alpes;84;4.91472;44.9162;;www.onisep.fr/http/redirection/etablissement/slug/ENS.6339
0692187C;19691774400233;"Unité de formation et de recherche";"Institut des sciences pharmaceutiques et biologiques";ISPB;public;"Ministère chargé de l'Enseignement supérieur de la Recherche et de l'Innovation";"Université Claude Bernard - Lyon 1";www.onisep.fr/http/redirection/etablissement/slug/ENS.380;;;;"8 avenue Rockefeller";69373;Lyon;69380;"Cedex 08";"04 78 77 70 00";08;"69 - Rhône";Lyon;Auvergne-Rhône-Alpes;84;4.88011;45.7423;;www.onisep.fr/http/redirection/etablissement/slug/ENS.3029
0161125L;19860856400037;"Institut universitaire de technologie";"IUT d'Angoulême";IUT;public;"Ministère chargé de l'Enseignement supérieur de la Recherche et de l'Innovation";"Université de Poitiers";www.onisep.fr/http/redirection/etablissement/slug/ENS.192;;;;"4 avenue de Varsovie";16000;Angoulême;16015;;"05 45 67 32 07";;"16 - Charente";Poitiers;Nouvelle-Aquitaine;75;0.137499;45.6481;;www.onisep.fr/http/redirection/etablissement/slug/ENS.17641
0940750E;19941952400012;"Lycée professionnel";"Section d'enseignement professionnel du lycée François Arago";;public;"Ministère chargé de l'Éducation nationale et de Jeunesse";;;;;;"36 avenue de l'Europe";94190;Villeneuve-Saint-Georges;94078;;"01 45 10 87 00";;"94 - Val-de-Marne";Créteil;Ile-de-France;11;2.4587;48.7302;;www.onisep.fr/http/redirection/etablissement/slug/ENS.7444
0692715B;30293143100019;"Maison familiale rurale";"Maison familiale rurale de l'Ouest Lyonnais";;"privé sous contrat";"Ministère de l'Agriculture et de l'Alimentation";;;;;;"Chemin de la Brossonnière";69280;Sainte-Consorce;69190;;"04 78 19 80 50";;"69 - Rhône";Lyon;Auvergne-Rhône-Alpes;84;4.69538;45.7677;;www.onisep.fr/http/redirection/etablissement/slug/ENS.16603
0596351H;39955313000044;"autre établissement d'enseignement";"Ecole supérieure des métiers de l'immobilier";EFAB;privé;;;;;;;"159-161 boulevard de la liberté";59000;Lille;59350;;"03 20 15 16 77";;"59 - Nord";Lille;Hauts-de-France;32;3.054193;50.633509;;www.onisep.fr/http/redirection/etablissement/slug/ENS.19529
0442937D;32922456200572;"autre établissement d'enseignement";"My Digital School";;privé;;;;;;;"4 chemin de le Chatterie";44800;Saint-Herblain;44162;;"02 40 89 85 63";;"44 - Loire-Atlantique";Nantes;"Pays de la Loire";52;-1.6212552;47.2446759;;www.onisep.fr/http/redirection/etablissement/slug/ENS.22206
0624237U;19594403800247;"Unité de formation et de recherche";"Centre de gestion universitaire Descartes";;public;"Ministère chargé de l'Enseignement supérieur de la Recherche et de l'Innovation";"Université du Littoral Côte d'Opale";www.onisep.fr/http/redirection/etablissement/slug/ENS.370;;;"BP 40099";"Avenue Descartes";62968;Longuenesse;62525;Cedex;"03 21 38 87 00";;"62 - Pas-de-Calais";Lille;Hauts-de-France;32;2.26003;50.7375;;www.onisep.fr/http/redirection/etablissement/slug/ENS.9876
0171208W;18170003000065;"Centre de formation d'apprentis";"CFA commerce";;public;"Chambre de commerce et d'industrie";;;;;"CS 20089";"11 rue de l'Ormeau de Pied";17103;Saintes;17415;Cedex;"05 46 97 28 70";;"17 - Charente-Maritime";Poitiers;Nouvelle-Aquitaine;75;-0.665637;45.7424;"le 19/03/2022 de 09h00 à 17h00 (sur inscription) voir https://urlz.fr/h3Va | le 21/05/2022 de 09h00 à 13h00 (sur inscription) voir https://urlz.fr/h3Va";www.onisep.fr/http/redirection/etablissement/slug/ENS.9013
0881705A;19541508800168;"Institut universitaire de technologie";"IUT Epinal - Hubert Curien";;public;"Ministère chargé de l'Enseignement supérieur de la Recherche et de l'Innovation";"Université de Lorraine";www.onisep.fr/http/redirection/etablissement/slug/ENS.645;;;"BP 392";"7 rue Fusillés Résistance";88010;Épinal;88160;Cedex;"03 72 74 18 00";;"88 - Vosges";Nancy-Metz;"Grand Est";44;6.4525;48.1677;;www.onisep.fr/http/redirection/etablissement/slug/ENS.8152
0030946M;77567227221286;"Ecole de santé";"Institut régional de formation sanitaire et sociale Auvergne-Rhône-Alpes - Croix-Rouge française - Ecole de santé";IRFSS;"privé sous contrat";;;;;;"BP 30401";"20 rue du Vert Galant";03004;Moulins;03190;Cedex;"04 70 48 20 30";;"03 - Allier";Clermont-Ferrand;Auvergne-Rhône-Alpes;84;3.32883;46.568;;www.onisep.fr/http/redirection/etablissement/slug/ENS.14662
0840083J;18840001400018;"autre établissement d'enseignement";"Ecole hôtelière d'Avignon (CCI du Vaucluse)";EHA;public;"Chambre de commerce et d'industrie";;;;;"BP 660";"Campus de la CCI Allée des Fenaisons";84032;Avignon;84007;"Cedex 03";"04 90 13 86 46";;"84 - Vaucluse";Aix-Marseille;"Provence-Alpes-Côte d'Azur";93;4.84697;43.9273;;www.onisep.fr/http/redirection/etablissement/slug/ENS.2046
0371099U;19371099300018;"Lycée professionnel";"Lycée professionnel Henri Becquerel";;public;"Ministère chargé de l'Éducation nationale et de Jeunesse";;;;;;"1 rue Jules Ladoumègue";37000;Tours;37261;;"02 47 32 48 00";;"37 - Indre-et-Loire";Orléans-Tours;"Centre-Val de Loire";24;0.732784;47.3766;"le 26/03/2022 de 09h00 à 16h00 (formations post 3è)";www.onisep.fr/http/redirection/etablissement/slug/ENS.5711
0341700N;33513004300029;"Ecole du secteur social";"CEMÉA-OCCITANIE site de Montpellier";"CEMÉA OCCITANIE";"privé sous contrat";"Ministère des Solidarités et de la Santé";;;;;"CS 10033";"501 rue Métairie de Saysset";34078;Montpellier;34172;"Cedex 03";"04 67 50 46 00";;"34 - Hérault";Montpellier;Occitanie;76;3.89419;43.5907;;www.onisep.fr/http/redirection/etablissement/slug/ENS.7226
0850153E;13002068800144;"Centre de formation d'apprentis";"URMA Vendée";;public;"Chambres de métiers et de l'artisanat";;;;;"CS 90075";"24 rond-point du Coteau";85002;"La Roche-sur-Yon";85191;;"02 51 36 53 00";;"85 - Vendée";Nantes;"Pays de la Loire";52;-1.40988;46.6578;;www.onisep.fr/http/redirection/etablissement/slug/ENS.6802
0830077H;19830077400017;"Lycée agricole";"Lycée Agricampus";;public;"Ministère de l'Agriculture et de l'Alimentation";;;;;;"32 Chemin Saint Lazare";83408;Hyères;83069;Cedex;"04 94 01 35 55";;"83 - Var";Nice;"Provence-Alpes-Côte d'Azur";93;6.15278;43.1183;;www.onisep.fr/http/redirection/etablissement/slug/ENS.8173
0802200G;75243460500024;"autre établissement d'enseignement";"La Manu, l'école des métiers du numérique";"La Manu";"privé hors contrat";;;;;;;"70 rue des Jacobins";80090;Amiens;80021;;"09 86 27 17 04";;"80 - Somme";Amiens;Hauts-de-France;32;2.3016567;49.8903898;;www.onisep.fr/http/redirection/etablissement/slug/ENS.22100
0442394N;19440984300837;"Unité de formation et de recherche";"UFR sciences et techniques des activités physiques et sportives";STAPS;public;"Ministère chargé de l'Enseignement supérieur de la Recherche et de l'Innovation";"Nantes université";www.onisep.fr/http/redirection/etablissement/slug/ENS.106;;;"BP 72206";"25 bis boulevard Guy Mollet";44322;Nantes;44109;"Cedex 03";"02 51 83 72 00";;"44 - Loire-Atlantique";Nantes;"Pays de la Loire";52;-1.55385;47.2513;;www.onisep.fr/http/redirection/etablissement/slug/ENS.15609
9710682P;19971585500029;"Unité de formation et de recherche";"UFR de sciences exactes et naturelles de Guadeloupe";;public;"Ministère chargé de l'Enseignement supérieur de la Recherche et de l'Innovation";"Université des Antilles";www.onisep.fr/http/redirection/etablissement/slug/ENS.303;;;"BP 592";"Campus de Fouillole";97157;Pointe-à-Pitre;97120;Cedex;"05 90 48 31 56";;"971 - Guadeloupe";Guadeloupe;Guadeloupe;01;-61.529998779297;16.236000061035;;www.onisep.fr/http/redirection/etablissement/slug/ENS.2453
0851457X;19440984300563;"Institut universitaire de technologie";"IUT de La Roche sur Yon";;public;"Ministère chargé de l'Enseignement supérieur de la Recherche et de l'Innovation";"Nantes université";www.onisep.fr/http/redirection/etablissement/slug/ENS.106;;;;"18 boulevard Gaston Defferre CS 500 20";85035;"La Roche-sur-Yon";85191;Cedex;"02 51 47 84 40";;"85 - Vendée";Nantes;"Pays de la Loire";52;-1.40498;46.6771;;www.onisep.fr/http/redirection/etablissement/slug/ENS.11098
0501700B;26500165100016;"Ecole de santé";"Institut de formation en soins infirmiers et aides-soignants";"IFSI - IFAS";public;"Ministère des Solidarités et de la Santé";;;;;"BP 629";"Centre hospitalier 849 rue des Menneries";50406;Granville;50218;Cedex;"02 33 91 50 87";;"50 - Manche";Normandie;Normandie;28;-1.57051;48.8269;"le 17/03/2022 de 14h00 à 18h00";www.onisep.fr/http/redirection/etablissement/slug/ENS.7384
0840110N;19060793700082;"Centre de formation d'apprentis";"UFA d'Avignon (site Pétrarque) du CFA régional PACA";;public;"Ministère de l'Agriculture et de l'Alimentation";;;;;"BP 1208";"3592 route de Marseille, Campus Agroparc";84911;Avignon;84007;"Cedex 09";"04 90 13 43 13";;"84 - Vaucluse";Aix-Marseille;"Provence-Alpes-Côte d'Azur";93;4.84821;43.9252;;www.onisep.fr/http/redirection/etablissement/slug/ENS.12146
0851641X;78644691400131;"autre établissement d'enseignement";"Sup santé animale";;"privé sous contrat";"Ministère de l'Agriculture et de l'Alimentation";;;;;;"7 rue Edouard Marchand";85600;Montaigu-Vendée;85146;;"09 70 80 82 21";;"85 - Vendée";Nantes;"Pays de la Loire";52;-1.309422;46.980025;"le 19/03/2022 de 09h00 à 17h00";www.onisep.fr/http/redirection/etablissement/slug/ENS.14852
0281046K;33453316300021;"Centre de formation d'apprentis";"Pôle formation UIMM-CFAI Centre-Val de Loire";;privé;;;;;;;"11 rue Louis Appert";28200;Châteaudun;28088;;"02 37 45 26 29";;"28 - Eure-et-Loir";Orléans-Tours;"Centre-Val de Loire";24;1.34953;48.0839;"le 19/03/2022 de 09h00 à 16h00 (en continu)";www.onisep.fr/http/redirection/etablissement/slug/ENS.2116
0632078S;32396166400121;"Centre de formation d'apprentis";"Osengo - site de Moulins";;privé;;;;;;;"2 rue des Combattants de l'AFN";03000;Moulins;03190;;"04 73 34 35 21";;"03 - Allier";Clermont-Ferrand;Auvergne-Rhône-Alpes;84;3.0819427;45.7774551;;www.onisep.fr/http/redirection/etablissement/slug/ENS.22037
0333482F;83052386600010;"Centre de formation d'apprentis";"La piscine";;privé;;;;;;;"208 avenue de la Marne";33700;Mérignac;33281;;0579980080;;"33 - Gironde";Bordeaux;Nouvelle-Aquitaine;75;-0.63949948549271;44.833000183105;;www.onisep.fr/http/redirection/etablissement/slug/ENS.22187
;;"autre établissement d'enseignement";"Ecole supérieure d'informatique";SUPINFO;privé;;;;;;;"144 rue Nationale";59000;Lille;59350;;"01 84 07 17 86";;"59 - Nord";Lille;Hauts-de-France;32;3.0528534;50.6329099;;www.onisep.fr/http/redirection/etablissement/slug/ENS.19097
0830165D;19830766200066;"Institut universitaire de technologie";"IUT de Toulon Site de La Garde";;public;"Ministère chargé de l'Enseignement supérieur de la Recherche et de l'Innovation";"Université de Toulon";www.onisep.fr/http/redirection/etablissement/slug/ENS.185;;;;"Avenue de l'université, Bât A";83130;"La Garde";83062;Cedex;"04 94 14 22 03";;"83 - Var";Nice;"Provence-Alpes-Côte d'Azur";93;6.01729;43.1356;;www.onisep.fr/http/redirection/etablissement/slug/ENS.10945
0150688S;77910548500014;"Maison familiale rurale";"Maison familiale rurale de Saint-Flour";MFREO;"privé sous contrat";"Ministère de l'Agriculture et de l'Alimentation";;;;;;"Route de Massalès";15100;Saint-Flour;15187;;"04 71 60 07 62";;"15 - Cantal";Clermont-Ferrand;Auvergne-Rhône-Alpes;84;3.09558;45.0387;"le 20/05/2022";www.onisep.fr/http/redirection/etablissement/slug/ENS.10026
0721411T;77567227210156;"Ecole de santé";"Institut de formation en soins infirmiers de la Croix-Rouge française";IFSI;"privé sous contrat";"Ministère des Solidarités et de la Santé";;;;;;"17 rue Notre-Dame, Croix Rouge Française";72000;"Le Mans";72181;;"02 43 81 06 52";;"72 - Sarthe";Nantes;"Pays de la Loire";52;0.208953;48.0036;;www.onisep.fr/http/redirection/etablissement/slug/ENS.6230
0341335S;26340011100021;"Ecole de santé";"Institut de formation aux  métiers de la santé - Centre hospitalier";"IFSI IFAS IFAP";public;"Ministère des Solidarités et de la Santé";;;;;;"21 boulevard Kennedy";34500;Béziers;34032;;"04 67 09 21 60";;"34 - Hérault";Montpellier;Occitanie;76;3.23836;43.3526;;www.onisep.fr/http/redirection/etablissement/slug/ENS.9857
0300064G;;"Ecole de santé";"Ecole de puériculture - Centre hospitalier universitaire";;public;"Ministère des Solidarités et de la Santé";;;;;"BP 26";"3 bis rue Kleber";30029;Nîmes;30189;"Cedex 04";"04 66 68 69 05";;"30 - Gard";Montpellier;Occitanie;76;4.3663893;43.8496054;;www.onisep.fr/http/redirection/etablissement/slug/ENS.2055
0061077N;19060931300506;"Unité de formation et de recherche";"Institut du droit de la paix et du développement";IDPD;public;"Ministère chargé de l'Enseignement supérieur de la Recherche et de l'Innovation";"Université Côte d'Azur";www.onisep.fr/http/redirection/etablissement/slug/ENS.226;;;;"avenue du doyen Louis Trotabas, Campus Trotabas";06050;Nice;06088;"Cedex 01";"04 92 15 71 94";;"06 - Alpes-Maritimes";Nice;"Provence-Alpes-Côte d'Azur";93;7.24398;43.6951;;www.onisep.fr/http/redirection/etablissement/slug/ENS.11147
0301234D;26300017600051;"Ecole de santé";"Institut de formation en soins infirmiers - Centre hospitalier";"IFSI IFAS";public;"Ministère des Solidarités et de la Santé";;;"Institut de formation d'aides-soignants - Centre hospitalier - Antenne du Vigan à Le Vigan (30)";www.onisep.fr/http/redirection/etablissement/slug/ENS.19303;;"811 avenue du Dr Jean Goubert";30103;Alès;30007;Cedex;"04 66 78 30 31";;"30 - Gard";Montpellier;Occitanie;76;4.09492;44.1471;;www.onisep.fr/http/redirection/etablissement/slug/ENS.15557
0300139N;19300139300019;"Lycée agricole";"Lycée général, technologique et professionnel agricole Marie Durand";"LEGTPA Marie Durand";public;"Ministère de l'Agriculture et de l'Alimentation";;;;;;"Domaine de Donadille";30230;Rodilhan;30356;;"04 66 20 67 67";;"30 - Gard";Montpellier;Occitanie;76;4.44102;43.8305;;www.onisep.fr/http/redirection/etablissement/slug/ENS.11385
0060013G;19060013000016;"lycée GT";"Lycée Bristol";;public;"Ministère chargé de l'Éducation nationale et de Jeunesse";;;;;"CS 20114";"10 avenue Saint Nicolas";06414;Cannes;06029;Cedex;"04 93 06 79 00";;"06 - Alpes-Maritimes";Nice;"Provence-Alpes-Côte d'Azur";93;7.01975;43.5559;;www.onisep.fr/http/redirection/etablissement/slug/ENS.13838
0060776L;78261516500019;"Lycée professionnel";"Lycée professionnel Saint-Vincent de Paul";;"privé sous contrat";"Ministère chargé de l'Éducation nationale et de Jeunesse";;;;;;"17 rue Fodéré";06300;Nice;06088;;"04 93 89 96 45";;"06 - Alpes-Maritimes";Nice;"Provence-Alpes-Côte d'Azur";93;7.28589;43.6993;;www.onisep.fr/http/redirection/etablissement/slug/ENS.1819
0062015H;20000506400015;"lycée GT";"Lycée Simone Veil";;public;"Ministère chargé de l'Éducation nationale et de Jeunesse";;;;;;"1265 route de Biot";06560;Valbonne;06152;;"04 97 97 33 00";;"06 - Alpes-Maritimes";Nice;"Provence-Alpes-Côte d'Azur";93;7.03668;43.6432;;www.onisep.fr/http/redirection/etablissement/slug/ENS.17603
0831770Y;81839222700018;"Centre de formation d'apprentis";"OF-CFA B2H83";;privé;;;;;;;"rue Laurent  Schwartz , centre Hermès Parc Valgora";83160;"La Valette-du-Var";83144;;"04 94 22 59 58";;"83 - Var";Nice;"Provence-Alpes-Côte d'Azur";93;6.0089408;43.1413022;;www.onisep.fr/http/redirection/etablissement/slug/ENS.21684
0062257W;81945440600011;"Centre de formation d'apprentis";"OF-CFA BSM Philomena";;privé;;;;;;;"2000 chemin de la bastide rouge";06150;Cannes;06029;;"04 94 96 26 21";;"06 - Alpes-Maritimes";Nice;"Provence-Alpes-Côte d'Azur";93;6.9563996;43.5534941;;www.onisep.fr/http/redirection/etablissement/slug/ENS.21654
0660964P;84076431000016;"Centre de formation d'apprentis";"CFA OXIDEVE";;privé;;;;;;;"277 rue Jean Baptiste Biot";66000;Perpignan;66136;;"06 36 05 28 67";;"66 - Pyrénées-Orientales";Montpellier;Occitanie;76;2.9030661;42.7335074;;www.onisep.fr/http/redirection/etablissement/slug/ENS.21936
0512146F;19511296600690;"Institut national supérieur du professorat et de l'éducation";"Institut national supérieur du professorat et de l'éducation";"INSPÉ (ex ESPÉ)";public;"Ministère chargé de l'Enseignement supérieur de la Recherche et de l'Innovation";"Université de Reims Champagne-Ardenne";www.onisep.fr/http/redirection/etablissement/slug/ENS.378;"Institut national supérieur du professorat et de l'éducation à Troyes (10) | Institut national supérieur du professorat et de l'éducation (antenne) à Charleville-Mézières (08) | Institut national supérieur du professorat et de l'éducation (antenne) à Chaumont (52) | Institut national supérieur du professorat et de l'éducation (antenne) à Châlons-en-Champagne (51)";"www.onisep.fr/http/redirection/etablissement/slug/ENS.7642 | www.onisep.fr/http/redirection/etablissement/slug/ENS.2850 | www.onisep.fr/http/redirection/etablissement/slug/ENS.16063 | www.onisep.fr/http/redirection/etablissement/slug/ENS.5821";"BP 175";"23 rue Clément Ader";51685;Reims;51454;"Cedex 02";"03 26 50 59 59";;"51 - Marne";Reims;"Grand Est";44;4.069236;49.2326365;;www.onisep.fr/http/redirection/etablissement/slug/ENS.16068
0597246F;13002358300102;"Unité de formation et de recherche";"Faculté de psychologie, des sciences de l'éducation et de la formation - Département Sciences de l'éducation et la formation - Cité scientifique";;public;"Ministère chargé de l'Enseignement supérieur de la Recherche et de l'Innovation";"Université de Lille";www.onisep.fr/http/redirection/etablissement/slug/ENS.366;;;;"21 rue Elisée Reclus, Cité scientifique - Bâtiment B6";59655;Villeneuve-d'Ascq;59009;Cedex;"03 20 43 32 34";;"59 - Nord";Lille;Hauts-de-France;32;3.13306;50.6061;;www.onisep.fr/http/redirection/etablissement/slug/ENS.3104
9741090S;19974098600021;"Centre de formation d'apprentis";"CFAA FORMA'TERRA";;public;;;;"CFAA à Saint-Leu (974) | CFPPA Forma'terra à Saint-Benoît (974)";"www.onisep.fr/http/redirection/etablissement/slug/ENS.21909 | www.onisep.fr/http/redirection/etablissement/slug/ENS.21908";"CS 91037";"165 route de Mafate, Saint-Paul";97864;Saint-Paul;97415;;"02 62 45 92 92";;"974 - La Réunion";"La Réunion";"La Réunion";04;55.315751;-20.971831;"le 23/04/2022 (le 23 avril entre 8h et 12h30 (heure locale))";www.onisep.fr/http/redirection/etablissement/slug/ENS.17768
0891207D;19211237300522;"Unité de formation et de recherche";"UFR Sciences et techniques antenne d'Auxerre";;public;;"Université de Bourgogne";www.onisep.fr/http/redirection/etablissement/slug/ENS.272;"UFR Sciences et techniques à Dijon (21)";www.onisep.fr/http/redirection/etablissement/slug/ENS.13615;"BP 16";"route des Plaines de l'Yonne";89010;Auxerre;89024;;"03 86 49 28 51";;"89 - Yonne";Dijon;Bourgogne-Franche-Comté;27;3.5921328;47.7894309;;www.onisep.fr/http/redirection/etablissement/slug/ENS.19221
0753602H;78428109900043;"Ecole du secteur social";"Ecole supérieure de travail social";ETSUP;"privé sous contrat";"Ministère chargé des solidarités et de la cohésion sociale";;;"Ecole supérieure de travail social de Paris à Arcueil (94)";www.onisep.fr/http/redirection/etablissement/slug/ENS.2989;;"33 avenue du Maine";75015;Paris;75100;;"01 44 16 81 81";15;"75 - Paris";Paris;Ile-de-France;11;2.3219721236111;48.84210975;;www.onisep.fr/http/redirection/etablissement/slug/ENS.4615
9830507J;20001406600019;"lycée GT";"Lycée général et technologique Antoine Kela";;public;"Ministère chargé de l'Éducation nationale et de Jeunesse";;;;;"BP 147";"Route provinciale 3, Village";98822;Poindimié;98822;;"00 687 42 73 62";;"988 - Nouvelle-Calédonie";"Collectivités d'Outre Mer";"Collectivités d'outre-mer";00;165.33411026001;-20.938194153734;;www.onisep.fr/http/redirection/etablissement/slug/ENS.12303
0451566H;88087198300131;"Centre de formation d'apprentis";"Ecole supérieure de la banque Orléans";ESB;privé;"Ministère chargé de l'Éducation nationale et de Jeunesse";;;;;;"8 place Jean Monnet";45000;Orléans;45234;;"02 38 62 29 89";;"45 - Loiret";Orléans-Tours;"Centre-Val de Loire";24;1.87792;47.8992;;www.onisep.fr/http/redirection/etablissement/slug/ENS.8701
0531006F;80798522100017;"autre établissement d'enseignement";"Ecole supérieure de commerce et management";ESUP;privé;;;;;;;"8 allée de la Chartrie";53000;Laval;53130;Cedex;"02 43 64 37 30";;"53 - Mayenne";Nantes;"Pays de la Loire";52;-0.79578459999993;48.0715415;"le 02/04/2022 de 09h00 à 12h00";www.onisep.fr/http/redirection/etablissement/slug/ENS.18232
0442940G;81824197800043;"Centre de formation d'apprentis";"Diginamic - Saint-Herblain";;"privé hors contrat";;;;;;;"5 rue Jacques Brel";44800;Saint-Herblain;44162;;"02 85 67 04 05";;"44 - Loire-Atlantique";Nantes;"Pays de la Loire";52;-1.6296314;47.2332091;"le 09/04/2022 de 09h00 à 12h00";www.onisep.fr/http/redirection/etablissement/slug/ENS.22021
0611269Y;31491218900037;"Ecole de santé";"IFRES - Institut de formation en psychomotricité";IFRES;"privé sous contrat";;;;;;"BP 56";"25 rue Balzac";61002;Alençon;61001;Cedex;"02 33 80 08 89";;"61 - Orne";Normandie;Normandie;28;0.076656;48.430432;;www.onisep.fr/http/redirection/etablissement/slug/ENS.16950
0941925G;32187778900040;"Centre de formation d'apprentis";"CFA propreté INHNI Ile-de-France";"CFA INHNI";privé;"Ministère chargé des Entreprises et du commerce";;;"CFA propreté INHNI Ile-de-France (annexe) à Gennevilliers (92)";www.onisep.fr/http/redirection/etablissement/slug/ENS.16837;;"34 boulevard Maxime Gorki";94800;Villejuif;94076;;"01 46 77 40 40";;"94 - Val-de-Marne";Créteil;Ile-de-France;11;2.36795;48.7971;;www.onisep.fr/http/redirection/etablissement/slug/ENS.14508
0470883E;19330153800081;"Unité de formation et de recherche";"Institut droit et économie d'Agen";IDE;public;"Ministère chargé de l'Enseignement supérieur de la Recherche et de l'Innovation";"Université de Bordeaux";www.onisep.fr/http/redirection/etablissement/slug/ENS.724;;;;"2 quai de Dunkerque, Campus du Pin";47000;Agen;47001;;"05 53 77 57 01";;"47 - Lot-et-Garonne";Bordeaux;Nouvelle-Aquitaine;75;0.62703;44.2083;;www.onisep.fr/http/redirection/etablissement/slug/ENS.12460
0941242P;19941111700179;"Unité de formation et de recherche";"UFR de médecine - site Torcy";;public;;"Université Paris-Est Créteil Val-de-Marne";www.onisep.fr/http/redirection/etablissement/slug/ENS.148;;;;"2 avenue Salvador Allende";77200;Torcy;77468;;"01 49 81 37 04";;"77 - Seine-et-Marne";Créteil;Ile-de-France;11;2.6506297;48.8418487;;www.onisep.fr/http/redirection/etablissement/slug/ENS.18352
0382780R;19382780500014;"lycée GT";"Lycée général et technologique Aristide Bergès";;public;"Ministère chargé de l'Éducation nationale et de Jeunesse";;;;;"BP 31";"30 avenue Aimé Bouchayer";38171;Seyssinet-Pariset;38485;Cedex;"04 76 26 42 42";;"38 - Isère";Grenoble;Auvergne-Rhône-Alpes;84;5.69132;45.1849;;www.onisep.fr/http/redirection/etablissement/slug/ENS.8917
0630108A;26630746100183;"Ecole de santé";"Ecole de sages-femmes du CHU";"ESF CHU";public;"Ministère des Solidarités et de la Santé";;;;;"BP 38";"28 place Henri Dunant";63001;Clermont-Ferrand;63113;"Cedex 01";"04 73 75 03 15";;"63 - Puy-de-Dôme";Clermont-Ferrand;Auvergne-Rhône-Alpes;84;3.0895;45.7598;;www.onisep.fr/http/redirection/etablissement/slug/ENS.13116
0741758J;49317540000040;"Centre de formation d'apprentis";"CFAI Formavenir";;privé;;;;"CFAI Formavenir à Thyez (74)";www.onisep.fr/http/redirection/etablissement/slug/ENS.6903;;"6 avenue du Pré de Challes, PAE des Glaisins";74940;Annecy;74010;;"04 50 98 56 19";;"74 - Haute-Savoie";Grenoble;Auvergne-Rhône-Alpes;84;6.16824;45.9288;;www.onisep.fr/http/redirection/etablissement/slug/ENS.19638
0932122B;19931737100011;"Lycée professionnel";"Lycée polyvalent d'Alembert";;public;"Ministère chargé de l'Éducation nationale et de Jeunesse";;;;;;"7 rue Commandant l'Herminier";93300;Aubervilliers;93001;;"01 48 33 15 43";;"93 - Seine-Saint-Denis";Créteil;Ile-de-France;11;2.38589;48.9169;;www.onisep.fr/http/redirection/etablissement/slug/ENS.10686
0950640E;19950640300021;"lycée GT";"Lycée Julie-Victoire Daubié";;public;"Ministère chargé de l'Éducation nationale et de Jeunesse";;;;;;"9 rue Louis Massignon";95100;Argenteuil;95018;;"01 30 76 55 55";;"95 - Val-d'Oise";Versailles;Ile-de-France;11;2.23331;48.9522;;www.onisep.fr/http/redirection/etablissement/slug/ENS.12240
0470009E;19470009200019;"lycée GT";"Lycée Stendhal";;public;"Ministère chargé de l'Éducation nationale et de Jeunesse";;;;;;"Allée Charles de Gaulle";47190;Aiguillon;47004;;"05 53 79 60 22";;"47 - Lot-et-Garonne";Bordeaux;Nouvelle-Aquitaine;75;0.336913;44.3008;;www.onisep.fr/http/redirection/etablissement/slug/ENS.7759
0772667F;;"autre établissement d'enseignement";"Institut supérieur en alternance du management";ISEAM;privé;;;;;;;"52 rue de la Maison Rouge";77185;Lognes;77258;;"01 64 62 62 45";;"77 - Seine-et-Marne";Créteil;Ile-de-France;11;2.6287;48.8258;;www.onisep.fr/http/redirection/etablissement/slug/ENS.18935
0594901G;77567227228885;"Ecole de santé";"Institut de formation en soins infirmiers, aides-soignants - Croix-Rouge Française Hauts-de-France";"IFSI IFAS CRF HDF";"privé sous contrat";"Ministère des Solidarités et de la Santé";;;;;;"Route de Cambrai";59187;Déchy;59170;;"03 27 88 94 00";;"59 - Nord";Lille;Hauts-de-France;32;3.1261161;50.3103587;;www.onisep.fr/http/redirection/etablissement/slug/ENS.8664
9840482B;20009001700019;"lycée GT";"Lycée du Diadème - Te tara o mai'ao";;public;"Ministère chargé de l'Éducation nationale et de Jeunesse";;;;;"BP 5694";"rue Taaone";98716;Pirae;98736;;"689 40 54 26 00";;"987 - Polynésie française";"Collectivités d'Outre Mer";"Collectivités d'outre-mer";00;-149.5498251915;-17.530334804237;;www.onisep.fr/http/redirection/etablissement/slug/ENS.4465
0921365J;78544310200013;"lycée GT";"Lycée Madeleine Daniélou";;"privé sous contrat";"Ministère chargé de l'Éducation nationale et de Jeunesse";;;;;;"61-63 rue du Général de Miribel";92508;Rueil-Malmaison;92063;;"01 41 39 25 80";;"92 - Hauts-de-Seine";Versailles;Ile-de-France;11;2.17197;48.8603;;www.onisep.fr/http/redirection/etablissement/slug/ENS.8252
0781845G;19781845300015;"lycée GT";"Lycée Jules Ferry";;public;"Ministère chargé de l'Éducation nationale et de Jeunesse";;;;;"BP 15";"7 rue Joseph Bouyssel";78700;Conflans-Sainte-Honorine;78172;;"01 34 90 03 70";;"78 - Yvelines";Versailles;Ile-de-France;11;2.09522;48.9986;;www.onisep.fr/http/redirection/etablissement/slug/ENS.12162
0783282U;30340859500021;"lycée GT";"Lycée Blanche de Castille";;"privé sous contrat";"Ministère chargé de l'Éducation nationale et de Jeunesse";;;;;;"1 avenue de la Bretèche";78150;"Le Chesnay-Rocquencourt";78158;;"01 39 23 14 30";;"78 - Yvelines";Versailles;Ile-de-France;11;2.13193;48.8303;;www.onisep.fr/http/redirection/etablissement/slug/ENS.15332
0741444T;21740010000491;"Ecole d'art";"Ecole supérieure d'art Annecy Alpes";ESAAA;public;"Ministère de la Culture et de la communication";;;;;;"52 bis rue des Marquisats";74000;Annecy;74010;;"04 50 33 65 53";;"74 - Haute-Savoie";Grenoble;Auvergne-Rhône-Alpes;84;6.13563;45.8931;;www.onisep.fr/http/redirection/etablissement/slug/ENS.841
0951147F;19951147800018;"lycée GT";"Lycée Fragonard";;public;"Ministère chargé de l'Éducation nationale et de Jeunesse";;;;;"BP 11020";"3 rue Fragonard";95290;L'Isle-Adam;95313;;"01 34 08 19 91";;"95 - Val-d'Oise";Versailles;Ile-de-France;11;2.22342;49.1165;;www.onisep.fr/http/redirection/etablissement/slug/ENS.7626
0782132U;19782132500010;"lycée GT";"Lycée Jeanne d'Albret";;public;"Ministère chargé de l'Éducation nationale et de Jeunesse";;;;;;"6 rue Giraud Teulon";78100;Saint-Germain-en-Laye;78551;;"01 39 04 15 20";;"78 - Yvelines";Versailles;Ile-de-France;11;2.09764;48.8925;;www.onisep.fr/http/redirection/etablissement/slug/ENS.3212
0920137Z;19920137700017;"lycée GT";"Lycée Guy de Maupassant";;public;"Ministère chargé de l'Éducation nationale et de Jeunesse";;;;;;"52 rue Robert Schuman";92700;Colombes;92025;;"01 46 52 50 00";;"92 - Hauts-de-Seine";Versailles;Ile-de-France;11;2.24224;48.928;;www.onisep.fr/http/redirection/etablissement/slug/ENS.9185
0951974E;19951398700016;"lycée GT";"Lycée Louis Armand";;public;"Ministère chargé de l'Éducation nationale et de Jeunesse";;;;;;"32 rue Stéphane Proust";95600;Eaubonne;95203;;"01 34 06 10 30";;"95 - Val-d'Oise";Versailles;Ile-de-France;11;2.2895;48.9967;;www.onisep.fr/http/redirection/etablissement/slug/ENS.16450
0751998P;19751720400222;"Unité de formation et de recherche";"UFR Etudes anglophones (Master)";;public;"Ministère chargé de l'Enseignement supérieur de la Recherche et de l'Innovation";"Sorbonne Université";www.onisep.fr/http/redirection/etablissement/slug/ENS.656;;;;"1 rue Victor Cousin";75005;Paris;75100;;"01 40 46 25 98";05;"75 - Paris";Paris;Ile-de-France;11;2.34281;48.8483;;www.onisep.fr/http/redirection/etablissement/slug/ENS.19310
0751984Z;19751719600212;"Unité de formation et de recherche";"Département d'études orientales";;public;"Ministère chargé de l'Enseignement supérieur de la Recherche et de l'Innovation";"Université  Sorbonne Nouvelle";www.onisep.fr/http/redirection/etablissement/slug/ENS.79;;;;"10-12 avenue de Saint-Mandé";75012;Paris;75100;;;12;"75 - Paris";Paris;Ile-de-France;11;2.354249;48.840195;;www.onisep.fr/http/redirection/etablissement/slug/ENS.12732
0754585B;33111876000015;"Ecole d'art";"Ecole nationale supérieure de création industrielle Les Ateliers";ENSCI;public;"Ministère chargé de l'Économie, des Finances et de la Relance";;;;;;"48 rue Saint Sabin";75011;Paris;75100;;"01 49 23 12 12";11;"75 - Paris";Paris;Ile-de-France;11;2.36909;48.8586;;www.onisep.fr/http/redirection/etablissement/slug/ENS.3349
0772316Z;12001502900263;"Centre de formation de fonctionnaires";"Ecole nationale supérieure de police";ENSP;public;"Ministère de l'Intérieur";;;;;"BP 50097";"Rue Désiré Thoison";77130;Cannes-Ecluse;77061;;"01 64 69 35 00";;"77 - Seine-et-Marne";Créteil;Ile-de-France;11;2.98692;48.3591;;www.onisep.fr/http/redirection/etablissement/slug/ENS.6531
0930118Y;19930118500013;"lycée GT";"Lycée Jean Renoir";;public;"Ministère chargé de l'Éducation nationale et de Jeunesse";;;;;"BP 133";"11 rue Frémin";93140;Bondy;93010;Cedex;"01 48 02 58 00";;"93 - Seine-Saint-Denis";Créteil;Ile-de-France;11;2.47408;48.9036;;www.onisep.fr/http/redirection/etablissement/slug/ENS.8906
0753933T;33482162600028;"lycée GT";"Lycée privé Saint-Louis de Gonzague";;"privé sous contrat";"Ministère chargé de l'Éducation nationale et de Jeunesse";;;;;;"12 rue Benjamin Franklin";75116;Paris;75100;;"01 44 30 45 50";16;"75 - Paris";Paris;Ile-de-France;11;2.28548;48.8596;;www.onisep.fr/http/redirection/etablissement/slug/ENS.5148
0771436T;19771436300011;"Lycée agricole";"Lycée Bougainville";;public;"Ministère de l'Agriculture et de l'Alimentation";;;;;;"RD 319, Domaine de Sansalle";77257;Brie-Comte-Robert;77053;Cedex;"01 60 62 33 00";;"77 - Seine-et-Marne";Créteil;Ile-de-France;11;2.6472;48.6783;;www.onisep.fr/http/redirection/etablissement/slug/ENS.8328
0750715V;19750715500012;"lycée GT";"Lycée Maurice Ravel";;public;"Ministère chargé de l'Éducation nationale et de Jeunesse";;;;;;"89 cours de Vincennes";75020;Paris;75100;;"01 44 64 87 40";20;"75 - Paris";Paris;Ile-de-France;11;2.40832;48.8477;;www.onisep.fr/http/redirection/etablissement/slug/ENS.3127
0750680G;19750680100012;"lycée GT";"Lycée Arago";;public;"Ministère chargé de l'Éducation nationale et de Jeunesse";;;;;;"4 place de la Nation";75012;Paris;75100;;"01 43 07 37 40";12;"75 - Paris";Paris;Ile-de-France;11;2.39431;48.8479;;www.onisep.fr/http/redirection/etablissement/slug/ENS.13283
0755999N;75253547600325;"Ecole de gestion et de commerce";"MBA ESG Paris";ESG;privé;;;;;;;"35 avenue Philippe Auguste";75011;Paris;75100;;"01 55 25 69 11";11;"75 - Paris";Paris;Ile-de-France;11;2.3932745;48.8516824;;www.onisep.fr/http/redirection/etablissement/slug/ENS.17221
0780548X;26780271800069;"Ecole de santé";"Institut de formation en soins infirmiers - Centre hospitalier Versailles";IFSI;public;"Ministère des Solidarités et de la Santé";;;;;;"25 boulevard Saint-Antoine";78000;Versailles;78646;;"01 39 63 93 38";;"78 - Yvelines";Versailles;Ile-de-France;11;2.12399;48.8165;;www.onisep.fr/http/redirection/etablissement/slug/ENS.2178
0753885R;59200229900010;"lycée GT";"Lycée privé Rocroy Saint-Vincent-de-Paul";;"privé sous contrat";"Ministère chargé de l'Éducation nationale et de Jeunesse";;;;;;"106 rue du faubourg Poissonnière";75010;Paris;75100;;"01 44 63 18 00";10;"75 - Paris";Paris;Ile-de-France;11;2.34931;48.8787;;www.onisep.fr/http/redirection/etablissement/slug/ENS.8533
0910808J;77571885100030;"lycée GT";"Lycée Saint-Charles";;"privé sous contrat";"Ministère chargé de l'Éducation nationale et de Jeunesse";;;;;;"2 rue G Anthonioz de Gaulle";91200;Athis-Mons;91027;;"01 60 48 71 00";;"91 - Essonne";Versailles;Ile-de-France;11;2.39097;48.7094;;www.onisep.fr/http/redirection/etablissement/slug/ENS.3118
0753637W;34182125400016;"Ecole d'art";"VISART - Paris School of Visual Arts";;"privé reconnu";"Ministère de la Culture et de la communication";;;;;;"35 Quai André Citroën";75011;Paris;75100;;"01 58 39 36 62";11;"75 - Paris";Paris;Ile-de-France;11;2.388724;48.852251;;www.onisep.fr/http/redirection/etablissement/slug/ENS.5100
0752247K;;"Ecole de santé";"Institut de puériculture et de périnatalogie";;"privé sous contrat";"Ministère des Solidarités et de la Santé";;;;;;"26 boulevard Brune";75014;Paris;75100;;"01 40 44 39 30";14;"75 - Paris";Paris;Ile-de-France;11;2.30776;48.827;;www.onisep.fr/http/redirection/etablissement/slug/ENS.1848
0752382G;78435344300012;"lycée GT";"Cours Clapeyron";;privé;;;;;;;"64 bis rue Taitbout";75009;Paris;75100;;"01 45 22 45 00";09;"75 - Paris";Paris;Ile-de-France;11;2.33537;48.876;;www.onisep.fr/http/redirection/etablissement/slug/ENS.3664
0753664A;19751718800318;"Unité de formation et de recherche";"Institut de préparation à l'administration générale";IPAG;public;"Ministère chargé de l'Enseignement supérieur de la Recherche et de l'Innovation";"Université Paris-Panthéon-Assas";www.onisep.fr/http/redirection/etablissement/slug/ENS.84;;;;"122 rue de Vaugirard";75006;Paris;75100;;"01 53 63 86 30";06;"75 - Paris";Paris;Ile-de-France;11;2.32111;48.8454;;www.onisep.fr/http/redirection/etablissement/slug/ENS.8534
0751981W;19751719600063;"Unité de formation et de recherche";"Département de littérature générale et comparée (Master)";LGC;public;"Ministère chargé de l'Enseignement supérieur de la Recherche et de l'Innovation";"Université  Sorbonne Nouvelle";www.onisep.fr/http/redirection/etablissement/slug/ENS.79;;;;"10-12 avenue de Saint-Mandé";75012;Paris;75100;;;12;"75 - Paris";Paris;Ile-de-France;11;2.3430322;48.8488906;;www.onisep.fr/http/redirection/etablissement/slug/ENS.5144
0782075G;19781944400013;"Unité de formation et de recherche";"UFR des sciences";;public;"Ministère chargé de l'Enseignement supérieur de la Recherche et de l'Innovation";"Université de Versailles Saint-Quentin-en-Yvelines";www.onisep.fr/http/redirection/etablissement/slug/ENS.35;;;;"45 avenue des Etats-Unis";78035;Versailles;78646;Cedex;"01 39 25 41 12";;"78 - Yvelines";Versailles;Ile-de-France;11;2.14996;48.8122;;www.onisep.fr/http/redirection/etablissement/slug/ENS.12559
0751985A;19751719600113;"Unité de formation et de recherche";"Ecole supérieure d'interprètes et de traducteurs";ESIT;public;"Ministère chargé de l'Enseignement supérieur de la Recherche et de l'Innovation";"Université  Sorbonne Nouvelle";www.onisep.fr/http/redirection/etablissement/slug/ENS.79;;;;"10-12 avenue de Saint-Mandé";75012;Paris;75100;;;12;"75 - Paris";Paris;Ile-de-France;11;2.274062;48.871557;;www.onisep.fr/http/redirection/etablissement/slug/ENS.3321
0951988V;20004866800061;"Ecole de santé";"Institut de formation en soins infirmiers de Beaumont";IFSI;public;"Ministère des Solidarités et de la Santé";;;;;;"Route de Noisy";95260;Beaumont-sur-Oise;95052;;"01 30 28 36 38";;"95 - Val-d'Oise";Versailles;Ile-de-France;11;2.29105;49.1432;"le 26/03/2022";www.onisep.fr/http/redirection/etablissement/slug/ENS.12586
0950759J;31107901600037;"lycée GT";"Lycée Notre-Dame de Bury";;"privé sous contrat";"Ministère chargé de l'Éducation nationale et de Jeunesse";;;;;;"1 avenue Georges Pompidou";95580;Margency;95369;;"01 34 27 38 00";;"95 - Val-d'Oise";Versailles;Ile-de-France;11;2.28225;49.0029;;www.onisep.fr/http/redirection/etablissement/slug/ENS.9025
0753579H;78435350000019;"autre établissement d'enseignement";"Ecole de l'expertise comptable et de l'audit";ENOES;"privé reconnu";;;;;;;"62 rue de Miromesnil";75008;Paris;75100;;"01 45 62 80 59";08;"75 - Paris";Paris;Ile-de-France;11;2.31585;48.8758;;www.onisep.fr/http/redirection/etablissement/slug/ENS.8864
0753564S;;"autre établissement d'enseignement";"Ecole des Hautes Etudes Internationales et Politiques";HEIP;privé;;;;;;;"37 quai de Grenelle - Bâtiment Castor";75015;Paris;75100;;"01 84 14 03 29";15;"75 - Paris";Paris;Ile-de-France;11;2.2571275;48.844457;;www.onisep.fr/http/redirection/etablissement/slug/ENS.15996
0754967S;39512947100060;"Ecole de gestion et de commerce";"SUP CAREER";;privé;;;;;;;"91 boulevard Exelmans";75019;Paris;75100;;"01 42 40 52 78";19;"75 - Paris";Paris;Ile-de-France;11;2.2585272969588;48.844363259061;;www.onisep.fr/http/redirection/etablissement/slug/ENS.4952
0211317T;19211237300175;"Unité de formation et de recherche";"UFR Langues et communication";;public;"Ministère chargé de l'Enseignement supérieur de la Recherche et de l'Innovation";"Université de Bourgogne";www.onisep.fr/http/redirection/etablissement/slug/ENS.272;;;;"2 boulevard Gabriel";21000;Dijon;21231;Cedex;"03 80 39 50 00";;"21 - Côte-d'Or";Dijon;Bourgogne-Franche-Comté;27;5.06423;47.3134;;www.onisep.fr/http/redirection/etablissement/slug/ENS.3931
0753370F;19751719600139;"Unité de formation et de recherche";"Département du monde anglophone (master et agrégation)";;public;"Ministère chargé de l'Enseignement supérieur de la Recherche et de l'Innovation";"Université  Sorbonne Nouvelle";www.onisep.fr/http/redirection/etablissement/slug/ENS.79;;;;"10-12 avenue de Saint-Mandé";75012;Paris;75100;;;12;"75 - Paris";Paris;Ile-de-France;11;2.3420608;48.8506257;;www.onisep.fr/http/redirection/etablissement/slug/ENS.7119
0711455W;26710033700034;"Ecole de santé";"Institut de formation en soins infirmiers - Institut de formation d'aides-soignants";"IFSI - IFAS";public;"Ministère des Solidarités et de la Santé";;;;;;"10 rue de Bourgogne";71600;Paray-le-Monial;71342;;"03 85 88 43 01";;"71 - Saône-et-Loire";Dijon;Bourgogne-Franche-Comté;27;4.12482;46.4533;;www.onisep.fr/http/redirection/etablissement/slug/ENS.13765
0261067U;77940502600013;"Lycée agricole";"Lycée technique privé les Mandailles";;"privé sous contrat";"Ministère de l'Agriculture et de l'Alimentation";;;;;;"18 rue du Stade";26330;Châteauneuf-de-Galaure;26083;;"04 75 68 61 22";;"26 - Drôme";Grenoble;Auvergne-Rhône-Alpes;84;4.95227;45.2274;"le 26/03/2022 de 09h00 à 13h00";www.onisep.fr/http/redirection/etablissement/slug/ENS.18429
0030888Z;33382464700015;"Lycée agricole";"Lycée d'enseignement agricole et forestier privé Claude Mercier";;"privé sous contrat";"Ministère de l'Agriculture et de l'Alimentation";;;;;;"Route de Lapalisse";03250;"Le Mayet-de-Montagne";03165;;"04 70 59 70 88";;"03 - Allier";Clermont-Ferrand;Auvergne-Rhône-Alpes;84;3.66679;46.0748;;www.onisep.fr/http/redirection/etablissement/slug/ENS.2571
0212045J;19210008900015;"lycée GT";"Lycée Étienne-Jules Marey";;public;"Ministère chargé de l'Éducation nationale et de Jeunesse";;;;;"BP 225";"5 rue du 16e Chasseurs";21206;Beaune;21054;Cedex;"03 80 24 83 00";;"21 - Côte-d'Or";Dijon;Bourgogne-Franche-Comté;27;4.85088;47.0299;;www.onisep.fr/http/redirection/etablissement/slug/ENS.3944
0211660R;19211660600018;"Centre de formation de fonctionnaires";"École nationale des greffes";;public;"Ministère de la Justice";;;;;"CS 27109";"5 boulevard de la Marne";21071;Dijon;21231;Cedex;"03 80 60 56 00";;"21 - Côte-d'Or";Dijon;Bourgogne-Franche-Comté;27;5.04906;47.3303;;www.onisep.fr/http/redirection/etablissement/slug/ENS.8437
0753457A;42150644500012;"Ecole d'art";"La Fémis - Ecole nationale supérieure des métiers de l'image et du son";;public;"Ministère de la Culture et de la communication";;;;;;"6 rue Francoeur";75018;Paris;75100;;"01 53 41 21 00";18;"75 - Paris";Paris;Ile-de-France;11;2.34259;48.8901;;www.onisep.fr/http/redirection/etablissement/slug/ENS.16755
;;"Ecole de santé";"Centre de formation de préparateurs en pharmacie hospitalière Salpêtrière (AP)";;public;"Ministère des Solidarités et de la Santé";;;;;;"33 boulevard de Picpus";75012;Paris;75100;;"01 40 27 51 57";12;"75 - Paris";Paris;Ile-de-France;11;2.3608146;48.8386049;;www.onisep.fr/http/redirection/etablissement/slug/ENS.18348
0754226L;77568809600012;"Ecole d'art";"Ecole supérieure des arts modernes";"ESAM Design";privé;;;;;;;"17 rue Jacquemont";75017;Paris;75100;;"01 53 06 88 00";17;"75 - Paris";Paris;Ile-de-France;11;2.32246;48.8877;;www.onisep.fr/http/redirection/etablissement/slug/ENS.15765
0342090M;20001499100018;"lycée GT";"Lycée Victor Hugo (voie générale et technologique)";;public;"Ministère chargé de l'Éducation nationale et de Jeunesse";;;;;"BP 80203";"300 avenue Louis Médard";34401;Lunel;34145;Cedex;"04 99 13 70 30";;"34 - Hérault";Montpellier;Occitanie;76;4.13697;43.6902;"le 19/03/2022 de 09h00 à 12h00 (Tout public)";www.onisep.fr/http/redirection/etablissement/slug/ENS.14838
0311870P;26310012500149;"Ecole de santé";"Institut de formation en soins infirmiers des Hôpitaux de Toulouse - Antenne de Saint-Gaudens";IFSI;public;"Ministère des Solidarités et de la Santé";;;;;;"14 place du Pilat";31800;Saint-Gaudens;31483;;"05 61 32 41 80";;"31 - Haute-Garonne";Toulouse;Occitanie;76;0.72137959999998;43.1101868;;www.onisep.fr/http/redirection/etablissement/slug/ENS.16868
0312093G;19312093800017;"lycée GT";"Lycée général et technologique international Victor Hugo";;public;"Ministère chargé de l'Éducation nationale et de Jeunesse";;;;;"BP 317";"boulevard Victor Hugo";31773;Colomiers;31149;Cedex;"05 61 15 94 94";;"31 - Haute-Garonne";Toulouse;Occitanie;76;1.30821;43.6159;;www.onisep.fr/http/redirection/etablissement/slug/ENS.11002
0771238C;35319145500016;"lycée GT";"Lycée Saint-Aspais";;"privé sous contrat";"Ministère chargé de l'Éducation nationale et de Jeunesse";;;;;"CS 20179";"36 rue Saint-Barthélemy";77007;Melun;77288;Cedex;"01 60 56 59 59";;"77 - Seine-et-Marne";Créteil;Ile-de-France;11;2.65592;48.5432;;www.onisep.fr/http/redirection/etablissement/slug/ENS.12881
0772276F;19772276200014;"lycée GT";"Lycée Jehan de Chelles";;public;"Ministère chargé de l'Éducation nationale et de Jeunesse";;;;;"BP 122";"47 rue des Cités";77649;Chelles;77108;Cedex;"01 64 72 43 40";;"77 - Seine-et-Marne";Créteil;Ile-de-France;11;2.61267;48.8891;;www.onisep.fr/http/redirection/etablissement/slug/ENS.2143
0772685A;20000739100010;"lycée GT";"Lycée Samuel Beckett";;public;"Ministère chargé de l'Éducation nationale et de Jeunesse";;;;;;"19 rue du Lion";77260;"La Ferté-sous-Jouarre";77183;;"01 60 24 20 00";;"77 - Seine-et-Marne";Créteil;Ile-de-France;11;3.13195;48.9438;;www.onisep.fr/http/redirection/etablissement/slug/ENS.17790
0312991H;44266678000048;"Centre de formation professionnelle";"Loisirs Education & Citoyenneté Formation";"LE&C Formation";privé;;;;;;;"7 rue Paul Mesplé";31000;Toulouse;31555;;"05 62 87 43 43";;"31 - Haute-Garonne";Toulouse;Occitanie;76;1.3851517438889;43.568848250798;;www.onisep.fr/http/redirection/etablissement/slug/ENS.19184
0312876H;31814740200073;"autre établissement d'enseignement";"ISCPA Toulouse - Institut supérieur des médias";ISCPA;privé;;;;;;;"186 route de Grenade";31700;Blagnac;31069;;"05 61 71 09 13";;"31 - Haute-Garonne";Toulouse;Occitanie;76;1.38632;43.6436;;www.onisep.fr/http/redirection/etablissement/slug/ENS.8197
0140113X;19141408500149;"Unité de formation et de recherche";"UFR sciences et techniques des activités physiques et sportives";STAPS;public;"Ministère chargé de l'Enseignement supérieur de la Recherche et de l'Innovation";"Université de Caen Normandie";www.onisep.fr/http/redirection/etablissement/slug/ENS.233;;;;"2 boulevard Maréchal Juin";14032;Caen;14118;Cedex;"02 31 56 72 54";;"14 - Calvados";Normandie;Normandie;28;-0.367186;49.2135;;www.onisep.fr/http/redirection/etablissement/slug/ENS.11173
0350699V;19350936100294;"Unité de formation et de recherche";"Institut de préparation à l'administration générale";IPAG;public;"Ministère chargé de l'Enseignement supérieur de la Recherche et de l'Innovation";"Université de Rennes 1";www.onisep.fr/http/redirection/etablissement/slug/ENS.34;;;;"106 boulevard de la Duchesse Anne";35700;Rennes;35238;;"02 23 23 78 93";;"35 - Ille-et-Vilaine";Rennes;Bretagne;53;-1.6683;48.1208;;www.onisep.fr/http/redirection/etablissement/slug/ENS.6604
0501839C;19501839500010;"lycée GT";"Lycée Sivard de Beaulieu";;public;"Ministère chargé de l'Éducation nationale et de Jeunesse";;;;;"BP 139";"7 rue Sivard de Beaulieu";50500;"Carentan les Marais";50099;;"02 33 71 75 00";;"50 - Manche";Normandie;Normandie;28;-1.24047;49.3049;"le 02/04/2022 de 09h00 à 12h30 (portes ouvertes 2nde à terminale)";www.onisep.fr/http/redirection/etablissement/slug/ENS.13343
0560042S;19560042400012;"Lycée professionnel";"Lycée professionnel Julien Crozet";;public;"Ministère chargé de l'Éducation nationale et de Jeunesse";;;;;"BP 33";"4 rue des Recollets";56290;Port-Louis;56181;;"02 97 87 17 30";;"56 - Morbihan";Rennes;Bretagne;53;-3.35694;47.7063;"le 13/05/2022 de 17h00 à 19h30";www.onisep.fr/http/redirection/etablissement/slug/ENS.4710
0062263C;88391951600012;"Centre de formation d'apprentis";"Association de Recherche et de Développement pour la Réussite Educative Scolaire et Sociale";ARDRESS;privé;;;;;;;"67 rue de la Fontaine";06550;"La Roquette-sur-Siagne";06108;;"04 93 94 51 54";;"06 - Alpes-Maritimes";Nice;"Provence-Alpes-Côte d'Azur";93;6.9588296;43.5961948;;www.onisep.fr/http/redirection/etablissement/slug/ENS.21904
0560053D;19560053100014;"Lycée professionnel";"Lycée professionnel Jean Guéhenno";;public;"Ministère chargé de l'Éducation nationale et de Jeunesse";;;;;"BP 552";"79 avenue de la Marne";56017;Vannes;56260;Cedex;"02 97 43 76 00";;"56 - Morbihan";Rennes;Bretagne;53;-2.7828;47.6591;;www.onisep.fr/http/redirection/etablissement/slug/ENS.12753
0180847Y;19180585200081;"Centre de formation d'apprentis";"CFA agricole du Cher";CFAAD;public;"Ministère de l'Agriculture et de l'Alimentation";;;;;;"le Sollier";18570;"Le Subdray";18255;Cedex;"02 48 70 77 12";;"18 - Cher";Orléans-Tours;"Centre-Val de Loire";24;2.29976;47.0223;;www.onisep.fr/http/redirection/etablissement/slug/ENS.4216
0291790N;30754662200019;"Maison familiale rurale";"IREO - antenne CFA MFR de Bretagne";;"privé sous contrat";"Ministère de l'Agriculture et de l'Alimentation";;;;;;"Route de Plouider";29260;Lesneven;29124;;"02 98 83 33 08";;"29 - Finistère";Rennes;Bretagne;53;-4.31356;48.5887;;www.onisep.fr/http/redirection/etablissement/slug/ENS.16467
;81420320400015;"Centre de formation professionnelle";"JLA Formation";;privé;;;;;;;"7 rue Edouard Branly";37230;Fondettes;37109;;"02 47 38 37 37";;"37 - Indre-et-Loire";Orléans-Tours;"Centre-Val de Loire";24;0.622638;47.408729;;www.onisep.fr/http/redirection/etablissement/slug/ENS.19452
0672503G;13000545700366;"Unité de formation et de recherche";"Faculté des arts";;public;"Ministère chargé de l'Enseignement supérieur de la Recherche et de l'Innovation";"Université de Strasbourg";www.onisep.fr/http/redirection/etablissement/slug/ENS.413;;;"BP 80010";"14 rue Descartes, Le Portique";67084;Strasbourg;67482;Cedex;"03 68 85 63 08";;"67 - Bas-Rhin";Strasbourg;"Grand Est";44;7.76271;48.5783;;www.onisep.fr/http/redirection/etablissement/slug/ENS.9488
0573561L;13001550600392;"Unité de formation et de recherche";"UFR arts, lettres, langues Metz";"UFR ALL";public;;"Université de Lorraine";www.onisep.fr/http/redirection/etablissement/slug/ENS.645;;;"BP 70328";"Ile du Saulcy";57000;Metz;57463;"Cedex 01";"03 72 74 77 00";;"57 - Moselle";Nancy-Metz;"Grand Est";44;6.1627980000001;49.120343;;www.onisep.fr/http/redirection/etablissement/slug/ENS.16902
0542499Y;;"Unité de formation et de recherche";"UFR Sciences humaines et sociales Metz";"UFR SHS";public;;"Université de Lorraine";www.onisep.fr/http/redirection/etablissement/slug/ENS.645;;;"BP 60228";"Ile du saulcy";57045;Metz;57463;"Cedex 01";"03 72 74 82 00";;"57 - Moselle";Nancy-Metz;"Grand Est";44;6.1627980000001;49.120343;;www.onisep.fr/http/redirection/etablissement/slug/ENS.16901
0540077R;19540077500019;"Lycée professionnel";"Section d'enseignement professionnel du lycée polyvalent Alfred Mézières";;public;"Ministère chargé de l'Éducation nationale et de Jeunesse";;;;;"BP 50018";"3 avenue André Malraux";54401;Longwy;54323;;"03 82 39 53 53";;"54 - Meurthe-et-Moselle";Nancy-Metz;"Grand Est";44;5.75921;49.5211;;www.onisep.fr/http/redirection/etablissement/slug/ENS.2557
0442631W;;"Centre de formation d'apprentis";"URMA Loire-Atlantique - site de la Maison de l'apprentissage";;public;"Chambres de métiers et de l'artisanat";;;"URMA - Loire-Atlantique - site de Sainte-Luce-sur-Loire à Sainte-Luce-sur-Loire (44)";www.onisep.fr/http/redirection/etablissement/slug/ENS.3568;;"66 rue Michel Ange";44600;Saint-Nazaire;44184;;"02 28 54 17 01";;"44 - Loire-Atlantique";Nantes;"Pays de la Loire";52;-2.2668;47.2646;;www.onisep.fr/http/redirection/etablissement/slug/ENS.10729
9740947L;20003001300219;"Ecole de santé";"Institut de formation en masso-kinésithérapie";IFMK;public;"Ministère des Solidarités et de la Santé";;;;;"BP 350";"CHU Sud Réunion - IES";97448;Saint-Pierre;97416;;"02 62 35 94 47";;"974 - La Réunion";"La Réunion";"La Réunion";04;55.492887496948;-21.347163819462;;www.onisep.fr/http/redirection/etablissement/slug/ENS.17617
0131674Z;06880225500015;"autre établissement d'enseignement";"Cours de France";;privé;;;;;;;"6 square Stalingrad";13001;Marseille;13200;;"04 91 50 64 40";01;"13 - Bouches-du-Rhône";Aix-Marseille;"Provence-Alpes-Côte d'Azur";93;5.38487;43.3;;www.onisep.fr/http/redirection/etablissement/slug/ENS.16515
0755481A;48070564900014;"Ecole d'art";"Studio Mercier";;privé;;;;;;;"12/16 avenue de Corbéra";75012;Paris;75100;;"01 44 68 07 32";12;"75 - Paris";Paris;Ile-de-France;11;2.3823966;48.8459005;;www.onisep.fr/http/redirection/etablissement/slug/ENS.17467
0542497W;13001550600905;"Centre de formation de fonctionnaires";"Centre de Formation des psychologues de l'Éducation nationale";CEFOPsyEN;public;"Ministère chargé de l'Enseignement supérieur de la Recherche et de l'Innovation";"Université de Lorraine";www.onisep.fr/http/redirection/etablissement/slug/ENS.645;"Institut national supérieur du professorat et de l'éducation - siège académique à Maxéville (54) | Institut national supérieur du professorat et de l'éducation - site d'Epinal à Épinal (88) | Institut national supérieur du professorat et de l'éducation - site de Bar-le-Duc à Bar-le-Duc (55) | Institut national supérieur du professorat et de l'éducation - site de Montigny-lès-Metz à Montigny-lès-Metz (57) | Institut national supérieur du professorat et de l'éducation - site de Nancy à Maxéville (54) | Institut national supérieur du professorat et de l'éducation - site de Sarreguemines à Sarreguemines (57)";"www.onisep.fr/http/redirection/etablissement/slug/ENS.8741 | www.onisep.fr/http/redirection/etablissement/slug/ENS.7389 | www.onisep.fr/http/redirection/etablissement/slug/ENS.11079 | www.onisep.fr/http/redirection/etablissement/slug/ENS.13463 | www.onisep.fr/http/redirection/etablissement/slug/ENS.7413 | www.onisep.fr/http/redirection/etablissement/slug/ENS.10966";;"5 rue Paul Richard";54320;Maxéville;54357;;;;"54 - Meurthe-et-Moselle";Nancy-Metz;"Grand Est";44;6.16481;48.709889;;www.onisep.fr/http/redirection/etablissement/slug/ENS.12129
0441511D;19440984300415;"Unité de formation et de recherche";"Institut d'études judiciaires";IEJ;public;"Ministère chargé de l'Enseignement supérieur de la Recherche et de l'Innovation";"Nantes université";www.onisep.fr/http/redirection/etablissement/slug/ENS.106;;;"BP 81307";"Chemin de la Censive du Tertre";44313;Nantes;44109;"Cedex 03";"02 40 14 15 22";;"44 - Loire-Atlantique";Nantes;"Pays de la Loire";52;-1.5518377;47.2453757;;www.onisep.fr/http/redirection/etablissement/slug/ENS.912
9741605B;44094454400020;"Ecole de santé";"Institut régional de formation en psychomotricité";;"privé sous contrat";"Ministère des Solidarités et de la Santé";;;"École des métiers de l'accompagnement de la personne à Saint-Pierre (974)";www.onisep.fr/http/redirection/etablissement/slug/ENS.19275;"BP 24";"1D Chemin Vélia - Bois d'olives";97432;Saint-Pierre;97416;;"02 62 96 95 30";;"974 - La Réunion";"La Réunion";"La Réunion";04;55.5406823;-21.2388106;;www.onisep.fr/http/redirection/etablissement/slug/ENS.19027
9720817F;;"Unité de formation et de recherche";"Faculté de médecine de Martinique";;public;"Ministère chargé de l'Enseignement supérieur de la Recherche et de l'Innovation";"Université des Antilles";www.onisep.fr/http/redirection/etablissement/slug/ENS.303;;;"BP 632";"Avenue Pierre Zobda Quitman, Service de Neurologie";97261;Fort-de-France;97209;Cedex;"05 96 75 04 92";;"972 - Martinique";Martinique;Martinique;02;-61.038279533386;14.633873768923;;www.onisep.fr/http/redirection/etablissement/slug/ENS.18871
0480022N;77612135200046;"lycée GT";"Lycée privé Saint Pierre - Saint Paul (voie générale et technologique)";;"privé sous contrat";"Ministère chargé de l'Éducation nationale et de Jeunesse";;;;;;"1 rue du Collège";48300;Langogne;48080;;"04 66 69 25 07";;"48 - Lozère";Montpellier;Occitanie;76;3.85287;44.7247;"le 19/03/2022 de 09h00 à 16h00 (Tout public)";www.onisep.fr/http/redirection/etablissement/slug/ENS.3584
0753488J;19753488600092;"Unité de formation et de recherche";"Département études arabes";Inalco;public;;"Institut national des langues et civilisations orientales";www.onisep.fr/http/redirection/etablissement/slug/ENS.85;;;;"65 rue des Grands Moulins";75013;Paris;75100;;"01 81 70 11 34";13;"75 - Paris";Paris;Ile-de-France;11;2.3757925;48.8274311;;www.onisep.fr/http/redirection/etablissement/slug/ENS.18005
0931823B;;"Conservatoire, Conservatoire départemental";"Conservatoire à rayonnement départemental de Bobigny";CRD;public;"Ministère de la Culture et de la communication";;;;;;"2 place de la libération";93000;Bobigny;93008;;"01 48 31 16 62";;"93 - Seine-Saint-Denis";Créteil;Ile-de-France;11;2.43917;48.9068;;www.onisep.fr/http/redirection/etablissement/slug/ENS.5465
0442619H;49884626000020;"autre établissement d'enseignement";"Centre de formation Comet";COMET;privé;;;;;;;"319 route de Vannes";44800;Saint-Herblain;44162;;"02 40 08 25 70";;"44 - Loire-Atlantique";Nantes;"Pays de la Loire";52;-1.6040733;47.2459077;;www.onisep.fr/http/redirection/etablissement/slug/ENS.16817
0755605K;48195887400036;"Ecole de santé";"Medisup Paramédical";;privé;;;;;;;"13 passage Dauphine";75006;Paris;75100;;"01 43 26 61 71";06;"75 - Paris";Paris;Ile-de-France;11;2.3388196;48.8547309;;www.onisep.fr/http/redirection/etablissement/slug/ENS.16989
;49942487700045;"autre établissement d'enseignement";Sup'Perform;;privé;;;;;;;"50 impasse Laënnec";30900;Nîmes;30189;;"07 82 28 98 65";;"30 - Gard";Montpellier;Occitanie;76;4.323405;43.820327;;www.onisep.fr/http/redirection/etablissement/slug/ENS.16589
0573780Z;48879238300025;"autre établissement d'enseignement";"Institut de management commercial";"IMC - ARTEMYS";"privé hors contrat";;;;"Institut de management commercial - site de Forbach à Forbach (57) | Institut de management commercial - site de Nancy à Nancy (54)";"www.onisep.fr/http/redirection/etablissement/slug/ENS.22030 | www.onisep.fr/http/redirection/etablissement/slug/ENS.22028";;"3 place Edouard Branly";57070;Metz;57463;;"08 06 11 08 06";;"57 - Moselle";Nancy-Metz;"Grand Est";44;6.2195491790771;49.10490022517;;www.onisep.fr/http/redirection/etablissement/slug/ENS.16443
0442077U;19440984300530;"Unité de formation et de recherche";"UFR de sciences et techniques";;public;"Ministère chargé de l'Enseignement supérieur de la Recherche et de l'Innovation";"Nantes université";www.onisep.fr/http/redirection/etablissement/slug/ENS.106;;;"BP 92208";"2 rue de la Houssiniere";44037;Nantes;44109;"Cedex 03";"02 51 12 52 12";;"44 - Loire-Atlantique";Nantes;"Pays de la Loire";52;-1.5537;47.2375;;www.onisep.fr/http/redirection/etablissement/slug/ENS.13660
0010965U;41884676200056;"Centre de formation d'apprentis";"BTP CFA Ain";;privé;"Ministère chargé de l'Éducation nationale et de Jeunesse";;;;;"CS 50253";"98 rue des Compagnons";01006;Bourg-en-Bresse;01053;Cedex;"04 74 21 44 97";;"01 - Ain";Lyon;Auvergne-Rhône-Alpes;84;5.2301;46.1862;"le 15/04/2022 (prendre RDV auprès de l'établissement) | le 11/06/2022 (prendre RDV auprès de l'établissement)";www.onisep.fr/http/redirection/etablissement/slug/ENS.1113
0910625K;19910625300016;"lycée GT";"Lycée Rosa Parks";;public;"Ministère chargé de l'Éducation nationale et de Jeunesse";;;"Centre médical et pédagogique-Annexe du lycée Rosa Parks de Montgeron à Varennes-Jarcy (91)";www.onisep.fr/http/redirection/etablissement/slug/ENS.16453;;"2 place de l'Europe";91230;Montgeron;91421;;"01 69 03 53 36";;"91 - Essonne";Versailles;Ile-de-France;11;2.45019;48.7062;;www.onisep.fr/http/redirection/etablissement/slug/ENS.2747
0370781Y;19370781700014;"Lycée agricole";"Lycée d'enseignement général et technologique agricole Tours-Fondettes agrocampus";;public;"Ministère de l'Agriculture et de l'Alimentation";;;;;"BP 40079";"La Plaine";37230;Fondettes;37109;PPDC;"02 47 42 01 06";;"37 - Indre-et-Loire";Orléans-Tours;"Centre-Val de Loire";24;0.63473;47.4003;"le 19/03/2022 de 09h00 à 13h00";www.onisep.fr/http/redirection/etablissement/slug/ENS.15279
0030879P;77906629900032;"Ecole de santé";"Institut de formation en masso-kinésithérapie";IFMK;"privé sous contrat";"Ministère des Solidarités et de la Santé";;;;;;"14-16 rue Fleury";03200;Vichy;03310;;"04 15 90 00 10";;"03 - Allier";Clermont-Ferrand;Auvergne-Rhône-Alpes;84;3.43444;46.1267;;www.onisep.fr/http/redirection/etablissement/slug/ENS.9686
9711279N;42342650100015;"Ecole du secteur social";"Centre de formation des travailleurs sociaux de la Guadeloupe";CFTS;"privé sous contrat";;;;;;;"Route de la Rocade, Grand Camp";97139;"Les Abymes";97101;;"05 90 83 79 25";;"971 - Guadeloupe";Guadeloupe;Guadeloupe;01;-62.067641;16.995971;;www.onisep.fr/http/redirection/etablissement/slug/ENS.18811
0920894X;78528764000011;"lycée GT";"Lycée Saint-Gabriel";;"privé sous contrat";"Ministère chargé de l'Éducation nationale et de Jeunesse";;;;;;"21 rue de la Lisette";92220;Bagneux;92007;;"01 46 57 61 22";;"92 - Hauts-de-Seine";Versailles;Ile-de-France;11;2.30201;48.7936;;www.onisep.fr/http/redirection/etablissement/slug/ENS.7206
0910623H;19910623800017;"lycée GT";"Lycée Marcel Pagnol";;public;"Ministère chargé de l'Éducation nationale et de Jeunesse";;;;;;"3 avenue de la Terrasse Prolongée";91200;Athis-Mons;91027;;"01 69 21 78 08";;"91 - Essonne";Versailles;Ile-de-France;11;2.3771;48.698;;www.onisep.fr/http/redirection/etablissement/slug/ENS.8771
0442427Z;42906279700031;"Ecole d'art";"ESMA Cinécréatis Nantes";ESMA;privé;;;;;;;"6 rue René Siegfried";44000;Nantes;44109;;"02 40 74 00 32";;"44 - Loire-Atlantique";Nantes;"Pays de la Loire";52;-1.56734;47.2045;;www.onisep.fr/http/redirection/etablissement/slug/ENS.6698
0561733E;19561718800188;"Institut national supérieur du professorat et de l'éducation";"Institut national supérieur du professorat et de l'éducation de Bretagne - site de Lorient";"INSPÉ (ex ESPÉ)";public;"Ministère chargé de l'Enseignement supérieur de la Recherche et de l'Innovation";"Université Bretagne-Sud";www.onisep.fr/http/redirection/etablissement/slug/ENS.376;;;"BP 92116";"4 rue Jean Zay";56100;Lorient;56121;Cedex;"02 97 87 29 13";;"56 - Morbihan";Rennes;Bretagne;53;-3.3854289;47.7429124;;www.onisep.fr/http/redirection/etablissement/slug/ENS.2471
0673068W;13000545700705;"Institut national supérieur du professorat et de l'éducation";"Institut national supérieur du professorat et de l'éducation (site de Sélestat)";"INSPÉ (ex ESPÉ)";public;"Ministère chargé de l'Enseignement supérieur de la Recherche et de l'Innovation";"Université de Strasbourg";www.onisep.fr/http/redirection/etablissement/slug/ENS.413;;;;"10 boulevard de Nancy";67600;Sélestat;67462;;"03 88 58 02 50";;"67 - Bas-Rhin";Strasbourg;"Grand Est";44;7.4537006020546;48.262832348431;;www.onisep.fr/http/redirection/etablissement/slug/ENS.3891
0670178E;13000545700234;"Institut d'études politiques";"Institut d'études politiques (Sciences Po Strasbourg)";IEP;public;"Ministère chargé de l'Enseignement supérieur de la Recherche et de l'Innovation";"Université de Strasbourg";www.onisep.fr/http/redirection/etablissement/slug/ENS.413;;;"CS 20024";"7 rue de l'Écarlate, Bâtiment Le Cardo";67082;Strasbourg;67482;Cedex;"03 68 85 83 75";;"67 - Bas-Rhin";Strasbourg;"Grand Est";44;7.77128;48.5846;;www.onisep.fr/http/redirection/etablissement/slug/ENS.10751
0692202U;19692437700043;"Unité de formation et de recherche";"Institut de droit et d'économie des affaires";"IDEA Lyon";public;"Ministère chargé de l'Enseignement supérieur de la Recherche et de l'Innovation";"Université Jean Moulin - Lyon 3";www.onisep.fr/http/redirection/etablissement/slug/ENS.6;;;;"18 rue Chevreul";69362;Lyon;69380;;"04 26 31 85 16";07;"69 - Rhône";Lyon;Auvergne-Rhône-Alpes;84;4.8383835;45.7491784;;www.onisep.fr/http/redirection/etablissement/slug/ENS.10548
9741094W;;"Unité de formation et de recherche";"Pôle relations extérieures, orientation et formation pour l'insertion professionnelle";PROFIL;public;;"Université de La Réunion";www.onisep.fr/http/redirection/etablissement/slug/ENS.266;;;;"117 rue du Général Ailleret";97418;"Le Tampon";97422;;"02 62 57 95 63";;"974 - La Réunion";"La Réunion";"La Réunion";04;55.50770637791;-21.268918891345;;www.onisep.fr/http/redirection/etablissement/slug/ENS.4337
0922116A;78540651300016;"Ecole du secteur social";"IRTS Ile-de-France Montrouge Neuilly-sur-Marne";IRTS;public;"Ministère des Solidarités et de la Santé";;;;;;"1 rue du 11 novembre, Site de Montrouge";92120;Montrouge;92049;;"01 40 92 01 02";;"92 - Hauts-de-Seine";Versailles;Ile-de-France;11;2.3166781;48.820559;;www.onisep.fr/http/redirection/etablissement/slug/ENS.13814
0541857A;78334221500036;"Ecole de santé";"Institut de formation en ergothérapie de Lorraine et Champagne-Ardenne";;"privé sous contrat";"Ministère des Solidarités et de la Santé";;;;;;"4 rue des Sables";54000;Nancy;54395;;"03 83 22 24 60";;"54 - Meurthe-et-Moselle";Nancy-Metz;"Grand Est";44;6.1998467;48.687784;;www.onisep.fr/http/redirection/etablissement/slug/ENS.17839
0753043A;;"Ecole de santé";"Institut de formation de manipulateurs d'électroradiologie médicale (AP)";IFMEM;public;"Ministère des Solidarités et de la Santé";;;;;;"33 boulevard de Picpus";75012;Paris;75100;;"01 40 27 51 55";12;"75 - Paris";Paris;Ile-de-France;11;2.3631946;48.8401867;;www.onisep.fr/http/redirection/etablissement/slug/ENS.16791
0755708X;51809403200035;"autre établissement d'enseignement";"European Communication School";ECS;privé;;;;;;;"9 rue Lekain";75016;Paris;75100;;"01 46 47 29 90";16;"75 - Paris";Paris;Ile-de-France;11;2.2782285;48.8565406;;www.onisep.fr/http/redirection/etablissement/slug/ENS.9817
0755907N;48342252300033;"Ecole d'art";"IMEP Paris College of Music";IMEP;privé;;;;;;;"7 rue Emile Dubois";75014;Paris;75100;;"01 46 04 90 87";14;"75 - Paris";Paris;Ile-de-France;11;2.2424625;48.8405434;;www.onisep.fr/http/redirection/etablissement/slug/ENS.1870
0260791U;19260791900029;"Lycée agricole";"Lycée horticole Terre d'horizon, pôle d'enseignement du végétal, du paysage et de l'environnement de la Drôme";;public;"Ministère de l'Agriculture et de l'Alimentation";;;;;"BP 224";"1414 chemin de Rosey Ouest";26105;Romans-sur-Isère;26281;Cedex;"04 75 71 25 25";;"26 - Drôme";Grenoble;Auvergne-Rhône-Alpes;84;4.99812;45.052;"le 19/03/2022 de 09h00 à 16h30 (pour toutes les formations, de la 4e aux BTS agricoles)";www.onisep.fr/http/redirection/etablissement/slug/ENS.17708
9740570B;19974478000016;"Unité de formation et de recherche";"UFR lettres et sciences humaines";;public;"Ministère chargé de l'Enseignement supérieur de la Recherche et de l'Innovation";"Université de La Réunion";www.onisep.fr/http/redirection/etablissement/slug/ENS.266;;;"BP 7151";"15 avenue René Cassin";97715;Saint-Denis;97411;"Cedex 09";"02 62 93 85 85";;"974 - La Réunion";"La Réunion";"La Réunion";04;55.4845995;-20.9018459;;www.onisep.fr/http/redirection/etablissement/slug/ENS.9070
0131675A;78275577100055;"Lycée professionnel";"Lycée professionnel Sainte-Elisabeth";;"privé sous contrat";"Ministère chargé de l'Éducation nationale et de Jeunesse";;;;;;"Chemin de la Bédoule, Lot n° 35B - ZA de la Haute - Bédoule";13240;Septèmes-les-Vallons;13106;;"04 91 51 01 41";;"13 - Bouches-du-Rhône";Aix-Marseille;"Provence-Alpes-Côte d'Azur";93;5.35315;43.4015;;www.onisep.fr/http/redirection/etablissement/slug/ENS.10155
0741532N;19740011200011;"lycée GT";"Lycée général et technologique de l'Albanais";;public;"Ministère chargé de l'Éducation nationale et de Jeunesse";;;;;"BP 102";"rue du Lycée";74152;Rumilly;74225;Cedex;"04 50 01 56 20";;"74 - Haute-Savoie";Grenoble;Auvergne-Rhône-Alpes;84;5.93351;45.8702;;www.onisep.fr/http/redirection/etablissement/slug/ENS.14005
0290078C;19290078500010;"Lycée professionnel";"Lycée professionnel Roz Glas";;public;"Ministère chargé de l'Éducation nationale et de Jeunesse";;;;;"BP 121";"1 place Jean Zay";29391;Quimperlé;29233;Cedex;"02 98 96 19 52";;"29 - Finistère";Rennes;Bretagne;53;-3.55495;47.8857;;www.onisep.fr/http/redirection/etablissement/slug/ENS.5532
0101016A;19100000900016;"lycée GT";"Lycée Edouard Herriot";;public;"Ministère chargé de l'Éducation nationale et de Jeunesse";;;;;"BP 90248";"rue La Maladière, Sainte-Savine";10300;Sainte-Savine;10362;Cedex;"03 25 72 15 50";;"10 - Aube";Reims;"Grand Est";44;4.02884;48.2928;;www.onisep.fr/http/redirection/etablissement/slug/ENS.16064
0771880A;19771880200014;"Lycée professionnel";"Lycée professionnel Charles Baudelaire";;public;"Ministère chargé de l'Éducation nationale et de Jeunesse";;;;;;"Avenue des comtes de Champagne";77100;Meaux;77284;;"01 60 09 07 05";;"77 - Seine-et-Marne";Créteil;Ile-de-France;11;2.9139;48.9545;;www.onisep.fr/http/redirection/etablissement/slug/ENS.16788
0312723S;32922456200259;"autre établissement d'enseignement";"ISCOM - école de communication et de publicité";ISCOM;privé;;;;;;;"210 La Tolosane";31670;Labège;31254;;"05 61 39 10 99";;"31 - Haute-Garonne";Toulouse;Occitanie;76;1.5094;43.5473;;www.onisep.fr/http/redirection/etablissement/slug/ENS.18067
0597006V;39098944000032;"Ecole de gestion et de commerce";"AMOS - Sport Business School";;privé;;;;;;;"56 rue Bonte Pollet";59000;Lille;59350;;"03 20 13 04 60";;"59 - Nord";Lille;Hauts-de-France;32;3.06511;50.6328;;www.onisep.fr/http/redirection/etablissement/slug/ENS.18836
0912351L;;"autre établissement d'enseignement";"ENIAC Paris-Sud";ENIAC;privé;;;;;;;"5 Grande rue";91600;Savigny-sur-Orge;91589;;"09 73 67 75 50";;"91 - Essonne";Versailles;Ile-de-France;11;2.35384;48.676;;www.onisep.fr/http/redirection/etablissement/slug/ENS.16720
0941239L;19941111700096;"Unité de formation et de recherche";"UFR de sciences et technologie";;public;"Ministère chargé de l'Enseignement supérieur de la Recherche et de l'Innovation";"Université Paris-Est Créteil Val-de-Marne";www.onisep.fr/http/redirection/etablissement/slug/ENS.148;;;;"61 avenue du Général de Gaulle";94010;Créteil;94028;Cedex;"01 45 17 13 49";;"94 - Val-de-Marne";Créteil;Ile-de-France;11;2.4428;48.7887;;www.onisep.fr/http/redirection/etablissement/slug/ENS.5551
0631457S;19631223500035;"Lycée agricole";"LPA des Combrailles - Site de Pontaumur";;public;"Ministère de l'Agriculture et de l'Alimentation";;;;;;"Rue Montaigne";63380;Pontaumur;63283;;"04 73 79 91 04";;"63 - Puy-de-Dôme";Clermont-Ferrand;Auvergne-Rhône-Alpes;84;2.67252;45.8649;"le 26/03/2022 de 09h00 à 17h00";www.onisep.fr/http/redirection/etablissement/slug/ENS.925
0771940R;19771940400018;"lycée GT";"Lycée polyvalent Gérard de Nerval";;public;"Ministère chargé de l'Éducation nationale et de Jeunesse";;;;;"BP 29";"89 cours des Roches";77421;Noisiel;77337;"Cedex 02";"01 60 37 53 00";;"77 - Seine-et-Marne";Créteil;Ile-de-France;11;2.6153546827047;48.8420285;;www.onisep.fr/http/redirection/etablissement/slug/ENS.4359
0772296C;19772296000014;"lycée GT";"Lycée polyvalent de la Mare Carrée";;public;"Ministère chargé de l'Éducation nationale et de Jeunesse";;;;;"BP 70";"Rue de la Mare Carrée";77550;Moissy-Cramayel;77296;;"01 64 13 44 22";;"77 - Seine-et-Marne";Créteil;Ile-de-France;11;2.57673;48.628;;www.onisep.fr/http/redirection/etablissement/slug/ENS.10007
0694349C;41014119600106;"autre établissement d'enseignement";"Euridis business school";EURIDIS;privé;;;;"Euridis business school à Lille (59) | Euridis Business school à Paris (75) | Euridis Business School à Paris (75) | Euridis Business School à Nantes (44) | Euridis Business School à Aix-en-Provence (13) | Euridis Business School à Toulouse (31)";"www.onisep.fr/http/redirection/etablissement/slug/ENS.22027 | www.onisep.fr/http/redirection/etablissement/slug/ENS.22130 | www.onisep.fr/http/redirection/etablissement/slug/ENS.18229 | www.onisep.fr/http/redirection/etablissement/slug/ENS.21995 | www.onisep.fr/http/redirection/etablissement/slug/ENS.22070 | www.onisep.fr/http/redirection/etablissement/slug/ENS.22205";;"56 rue Smith";69002;Lyon;69380;;"04 69 98 24 64";02;"69 - Rhône";Lyon;Auvergne-Rhône-Alpes;84;4.8426;45.7652;;www.onisep.fr/http/redirection/etablissement/slug/ENS.13371
